station_id,name,lat,lon,address,post_code,last_updated,extract_time
5569f71b-257d-43e3-bc03-e91a01af0901,Morbio Municipio,45.852005,9.016464,Via Giuseppe Cereghetti 8,6834,2024-03-14T23:56,2024-03-15T00:00
0aaf0389-081e-41f1-8e8f-d8291c28fa3c,Castel S. Pietro Posta,45.86163,9.008982,Via Landamano G. B. Maggi 10,6874,2024-03-14T23:56,2024-03-15T00:00
66c1dfee-cacc-4a46-a004-98ef4bc6d078,Marktplatz,47.40996,8.545296,Querstrasse 8,8050,2024-03-14T23:56,2024-03-15T00:00
575544d3-bf00-4129-bebc-81d3db84f219,Bethlehem Kirche,46.94933,7.3939867,Murtenstrasse 266,3027,2024-03-14T23:56,2024-03-15T00:00
ac3947c4-2ab0-4ae0-9c25-836292dff29c,Bucheggplatz,47.39808,8.533647,Bucheggplatz 2,8057,2024-03-14T23:56,2024-03-15T00:00
a41b28fa-5e3d-46eb-8171-bcc6bcc15907,Bahnhof Stöckacker,46.946663,7.400752,Untermattweg 36,3027,2024-03-14T23:56,2024-03-15T00:00
e3e1bb89-2ad2-41b3-9b67-57bcb31fbd9d,Siriuswiese,47.380318,8.552615,Siriusstrasse 4,8044,2024-03-14T23:56,2024-03-15T00:00
184d6d03-6873-4a5d-a89f-4646f2abf99e,Pauluskirche,47.39401,8.542036,Milchbuckstrasse 52,8057,2024-03-14T23:56,2024-03-15T00:00
9de815a0-1580-429d-bd70-deadd77801b3,"Nyon, Hôpital",46.383064,6.225766,Chemin de Monastier,1260,2024-03-14T23:56,2024-03-15T00:00
5a2eac04-6540-438d-ad37-53ae2f6359a4,Feldeggstrasse,47.359978,8.552717,Seefeldstrasse 96,8008,2024-03-14T23:56,2024-03-15T00:00
bc0d629b-7a59-49e3-8cd2-a391feeedec1,Airgate,47.414543,8.552747,Hagenholzstrasse 51,8050,2024-03-14T23:56,2024-03-15T00:00
51197679-f75b-40f0-8844-482508208f86,Lamprechtweg,47.413513,8.537816,Birchstrasse 183,8050,2024-03-14T23:56,2024-03-15T00:00
957f2e99-0b3d-4cf2-abad-14845b4f5a23,Emil-Oberhänsli,47.4177,8.545602,Felsenrainstrasse 2,8050,2024-03-14T23:56,2024-03-15T00:00
0e83cd33-9590-41c8-b624-7d18e3074d1b,Guisanplatz Expo,46.958717,7.464649,Mingerstrasse 4,3006,2024-03-14T23:56,2024-03-15T00:00
970e3539-4471-4817-a538-b0008f24f447,UniS,46.950344,7.435298,Schanzeneckstrasse 1,3012,2024-03-14T23:56,2024-03-15T00:00
568cc417-87d1-4ad8-a15d-525f128f9835,Wallgasse,46.94626,7.43804,Wallgasse 3,3011,2024-03-14T23:56,2024-03-15T00:00
f765c5b8-7f7d-424d-b8c8-cbc2f5ea3d4c,Rosengarten Ost,46.952065,7.4615808,Reiterstrasse 19,3006,2024-03-14T23:56,2024-03-15T00:00
cbdf0469-697f-4dd5-85a4-fbbf5140b334,Schönburg,46.95382,7.4581814,Spitalackerstrasse 12,3013,2024-03-14T23:56,2024-03-15T00:00
58e16b2b-a146-4453-8480-ecfce6d83db0,Bahnhofplatz,46.94833,7.44079,Spitalgasse 44,3011,2024-03-14T23:56,2024-03-15T00:00
47d99a4a-2d7c-4465-bf5d-ca3615e05123,Breitfeld,46.961964,7.452968,Weingartstrasse 59,3014,2024-03-14T23:56,2024-03-15T00:00
d5d24199-d069-4428-b8a8-789a0b55ac3c,Bühlstrasse Uni,46.951485,7.4303813,Bühlstrasse 37,3012,2024-03-14T23:56,2024-03-15T00:00
3538b114-0a34-4c78-9301-4a1bdf9eb15b,Böcklinstrasse,46.941624,7.463193,Brunnadernstrasse 20,3006,2024-03-14T23:56,2024-03-15T00:00
b124da46-6d4a-4be0-99dc-cf82e1e70bd0,Stauffachertor,47.37271,8.530437,Werdstrasse 25,8004,2024-03-14T23:56,2024-03-15T00:00
0be6661c-5fcf-493c-96eb-39764990a907,Wahlenpark,47.416157,8.541712,Eggbühlstrasse 21,8050,2024-03-14T23:56,2024-03-15T00:00
22c92826-3753-423f-9148-26c402bc2d18,Kinderspital,47.37084,8.559533,Dolderstrasse 32,8032,2024-03-14T23:56,2024-03-15T00:00
1d2185f4-7298-421b-a481-f83d0f93f325,Kornhausstrasse,47.388687,8.536433,Kornhausstrasse 30,8006,2024-03-14T23:56,2024-03-15T00:00
b93e267b-2f7a-4663-aa36-8c46542d11b4,Neufeldstrasse,46.956543,7.4317737,Neufeldstrasse 20,3012,2024-03-14T23:56,2024-03-15T00:00
7a9b7a92-d9b8-432f-9ff0-5a907307a968,Bierhübeli,46.956913,7.4376583,Neubrückstrasse 70,3012,2024-03-14T23:56,2024-03-15T00:00
ede307e2-8acc-4e14-a019-26022d165a1e,Falkenplatz,46.95155,7.4345384,Länggassstrasse 7,3012,2024-03-14T23:56,2024-03-15T00:00
04cd368b-5ef1-4916-a883-40954e589893,Manno Parco Giova,46.032852,8.921806,Via Norello 4,6928,2024-03-14T23:56,2024-03-15T00:00
e6019d19-96d6-4f55-8329-fe6fa6d78fcc,Magliaso FLP,45.98204,8.883593,Via Stazione  18,6983,2024-03-14T23:56,2024-03-15T00:00
77b01e79-8911-46fc-b7b0-06772c65b7f7,Sorengo Parco Sportivo,46.001156,8.934162,Via al Laghetto 5,6924,2024-03-14T23:56,2024-03-15T00:00
7577ac87-bc1c-436d-83ab-6084db2887cf,Caslano FLP,45.97731,8.875447,Via Stazione 77,6987,2024-03-14T23:56,2024-03-15T00:00
e1935596-4727-4a95-9c9e-f6c7185521e1,Manno Centro di Calcolo,46.022675,8.917196,Via Cantonale 16,6928,2024-03-14T23:56,2024-03-15T00:00
40ae4fc3-3a59-4d8b-a678-606aac2844c3,Wipkingerplatz,47.392345,8.523549,Wipkingerplatz 4,8037,2024-03-14T23:56,2024-03-15T00:00
6e9e6adb-1fd2-4fa8-a343-732263d7a8b0,Dorfstrasse,47.394554,8.522117,Dorfstrasse 40,8037,2024-03-14T23:56,2024-03-15T00:00
fd8ba0c6-a579-4654-879b-cd9e76a7b0f6,Dorflinde,47.407097,8.55033,Schwamendingenstrasse 41,8050,2024-03-14T23:56,2024-03-15T00:00
b2f4e647-2532-44de-a336-f1f8b2a56313,Hegibachplatz,47.361908,8.560922,Forchstrasse 99,8032,2024-03-14T23:56,2024-03-15T00:00
4896da71-e26d-4592-8626-750afd2868ab,Bachmätteli,46.939484,7.389997,Bottigenstrasse 9,3018,2024-03-14T23:56,2024-03-15T00:00
5ca5006f-37c6-4917-9c02-82d63053a79a,Westside,46.94396,7.3746104,Riedbachstrasse 96,3027,2024-03-14T23:56,2024-03-15T00:00
33e9c4fb-97f6-4d6e-8c74-6252091673b6,Bahnhof Bümpliz Nord,46.94565,7.3901,Mühledorfstrasse 20,3018,2024-03-14T23:56,2024-03-15T00:00
06267b84-84d9-44e8-9017-83027e079ca4,Schule Laubegg,46.94713,7.4657354,Schosshaldenstrasse 37,3006,2024-03-14T23:56,2024-03-15T00:00
67a1a786-c642-4d5e-80f8-8982cd00b1a9,Tellplatz,46.961857,7.459266,Tellstrasse 20,3014,2024-03-14T23:56,2024-03-15T00:00
425b0d3b-4da1-4080-82d3-e96678146e02,Tellstrasse EJPD,46.96033,7.461452,Wankdorfstrasse 1,3014,2024-03-14T23:56,2024-03-15T00:00
045a6fb4-eb1d-4dca-8a20-b7e686da1e70,Kasernenstrasse HKB,46.955265,7.4593277,Kasernenstrasse 13k,3014,2024-03-14T23:56,2024-03-15T00:00
da454f7a-6f3a-435d-936d-6312ca0b2521,Kasernenwiese,46.958603,7.456935,Militärstrasse 42,3014,2024-03-14T23:56,2024-03-15T00:00
e286000c-3eeb-49de-a9d6-a078bdf9b58c,Wankdorf Bhf Nord,46.96778,7.464649,Trüsselstrasse,3014,2024-03-14T23:56,2024-03-15T00:00
1ec7bcf5-8fa3-401a-8364-13c04845facc,Lorrainebrücke,46.954346,7.4453535,Lorrainestrasse 1,3013,2024-03-14T23:56,2024-03-15T00:00
ffc06402-ba07-43db-aa9d-326ce1dcef79,Wankdorf Bhf Süd,46.966587,7.4639626,Wankdorffeldstrasse 2,3014,2024-03-14T23:56,2024-03-15T00:00
7cbb9171-ba68-4695-95fd-0104a45306fb,Agno FLP,45.996254,8.900957,Via Stazione 2,6982,2024-03-14T23:56,2024-03-15T00:00
02c1b928-ebac-4b17-a744-10fe5d3792f4,Schwamendingerplatz,47.404,8.572126,Winterthurerstrasse 519,8051,2024-03-14T23:56,2024-03-15T00:00
fbd0e771-3179-4ea2-a637-82c23db191f3,Elfenau,46.933434,7.466467,Elfenauweg 92,3006,2024-03-14T23:56,2024-03-15T00:00
80e38d64-ba05-4911-bddb-afe0139a9b8f,Muggenbühl,47.3525,8.527157,Mutschellenstrasse 36,8038,2024-03-14T23:56,2024-03-15T00:00
d3d4b445-642e-4fd1-ab82-8ffe03d62be1,Stadthaus,47.369106,8.541428,Kappelergasse,8001,2024-03-14T23:56,2024-03-15T00:00
a89a686f-aab9-40cb-9b74-ae1c64d1c208,Heuried ZüriMobil Station,47.369183,8.505787,Wasserschöpfi,8055,2024-03-14T23:56,2024-03-15T00:00
5e8e9f0d-5448-4278-88cd-be4640ae8e75,Kleeplatz / Bollwerk,46.951897,7.442043,Bollwerk 41,3011,2024-03-14T23:56,2024-03-15T00:00
50a5d75f-a3e6-40c6-a8ce-9f861e65a961,Campus Est,46.011494,8.961011,Via la Santa,6962,2024-03-14T23:56,2024-03-15T00:00
3c90c20e-359b-4736-ab5f-990b981b29ee,Liebefeld Bahnhof,46.93036,7.41929,Stationsstrasse 1,3097,2024-03-14T23:56,2024-03-15T00:00
b5a48e91-4995-4b85-97bd-668a34ef18ec,Vidmar,46.93562,7.4165883,Könizstrasse 161,3097,2024-03-14T23:56,2024-03-15T00:00
faf28a7c-6aa4-4d8a-bb71-7a83b2851889,Köniz Zentrum,46.922977,7.414112,Bläuacker 10,3098,2024-03-14T23:56,2024-03-15T00:00
9053d46e-14e5-493c-a5ee-cfd57c22afc9,Camping Eichholz,46.93313,7.455933,Strandweg 49,3084,2024-03-14T23:56,2024-03-15T00:00
e2ee9bc3-1019-4dcd-a2e9-b11a7d5d3f59,Birchdörfli,47.406986,8.532464,Künzlistrasse 41,8057,2024-03-14T23:56,2024-03-15T00:00
eadc483b-c193-4f8d-992c-504d4742ecee,Bahnhof Affoltern,47.420757,8.508131,S-Bahnhof 1,8046,2024-03-14T23:56,2024-03-15T00:00
09356f5d-9755-429b-9629-201285e2779e,Tram-Endstation,46.92775,7.453419,Seftigenstrasse 280,3084,2024-03-14T23:56,2024-03-15T00:00
fe277f43-9f28-424f-ab2c-b142b2d9c830,Wabern Bahnhof,46.928783,7.446101,Bahnhofstrasse 14,3084,2024-03-14T23:56,2024-03-15T00:00
59d90888-22d0-4076-bc65-bd30755a514a,Stabio Via Luvee,45.854908,8.943853,Via Luvee,6855,2024-03-14T23:56,2024-03-15T00:00
09f2a703-a6e1-465a-8902-7553346d2aa0,Stabio Via Arca,45.85527,8.93759,Via Arca,6855,2024-03-14T23:56,2024-03-15T00:00
5b09a9e7-b8fb-4a94-aaae-3502236e5342,SBB Poststrasse,46.956955,7.48287,Poststrasse 5,3072,2024-03-14T23:56,2024-03-15T00:00
e8a3436c-8db3-4dd3-949f-ec73d32377a9,Bullingerplatz,47.379585,8.515633,Bullingerstrasse 5,8004,2024-03-14T23:56,2024-03-15T00:00
926c9f99-557c-4243-9b67-34c7ab7e0174,Herdern,47.389935,8.510406,Pfingstweidstrasse 96e,8001,2024-03-14T23:56,2024-03-15T00:00
db130e26-3756-48aa-9789-3909b2116f19,Hafen Enge,47.359676,8.535718,Mythenquai 50,8002,2024-03-14T23:56,2024-03-15T00:00
5190ffe6-c16c-466a-829e-32a4c195b2e7,Comerge,47.358665,8.5203705,Bubenbergstrasse 1,8045,2024-03-14T23:56,2024-03-15T00:00
d6f69b56-5037-4077-b8b4-73fe7edb17c6,Landesmuseum,47.378983,8.54125,Museumstrasse 2,8001,2024-03-14T23:56,2024-03-15T00:00
6eff6575-a32c-4308-9d68-0581f3398956,Bahnhof Wiedikon,47.371666,8.523548,Birmensdorferstrasse 80,8003,2024-03-14T23:56,2024-03-15T00:00
b4bebbe1-733c-4a13-9bc4-1698f8699502,ETH Hönggerberg,47.40781,8.506823,Stefano-Franscini-Platz 5,8093,2024-03-14T23:56,2024-03-15T00:00
b4ac4296-000d-4b03-ae45-47b1538cf8ee,Pelikanplatz,47.371082,8.536101,Pelikanplatz 5,8001,2024-03-14T23:56,2024-03-15T00:00
0780d338-0006-4f2a-abc9-921596315b5d,Hürlimannplatz,47.364944,8.525788,Hürlimannplatz 90,8002,2024-03-14T23:56,2024-03-15T00:00
5afd7c4d-3396-492b-8baa-c3bea57aebce,Stauffacherbrücke,47.37136,8.531334,Selnaustrasse 32,8001,2024-03-14T23:56,2024-03-15T00:00
012d75e0-f8cf-4d61-a597-08068c748763,Sportweg,47.391796,8.505698,Sportweg 25,8005,2024-03-14T23:56,2024-03-15T00:00
9dd140d3-b3d6-40a9-8643-04183d0429c2,Puls 5,47.391785,8.51817,Hardturmstrasse 11,8005,2024-03-14T23:56,2024-03-15T00:00
7f10bd1a-5a41-45e5-94fd-948de9777801,Röntgenstrasse,47.382084,8.528646,Röntgenstrasse 6,8005,2024-03-14T23:56,2024-03-15T00:00
3382dc54-2714-4eb9-8e5d-913705edddfa,Limmatplatz,47.38492,8.531935,Kornhausbrücke 1,8005,2024-03-14T23:56,2024-03-15T00:00
bc764602-533f-4e7d-8724-76bde233f047,Gessnerallee,47.375862,8.5354,Gessnerallee 15,8001,2024-03-14T23:56,2024-03-15T00:00
4c67d996-8e12-4d1d-8a44-f5b58c27ffa7,Bäckeranlage,47.377148,8.523818,Stauffacherstrasse 127,8004,2024-03-14T23:56,2024-03-15T00:00
e80f7e6d-a5cd-41bb-86d1-3735091b0bec,Gustav-Gull-Platz,47.378548,8.531836,Lagerstrasse 44,8004,2024-03-14T23:56,2024-03-15T00:00
244b4707-437a-4306-8803-a88286df7973,Zurlindenstrasse,47.377155,8.5104885,Zurlindenstrasse 291,8003,2024-03-14T23:56,2024-03-15T00:00
dae3399c-c667-447e-8e84-15f36c4056b6,Sihlstrasse,47.37311,8.533314,Sihlstrasse 81,8001,2024-03-14T23:56,2024-03-15T00:00
6981718e-6fd4-4ba4-ad1b-6c0972e8ff0f,Kalkbreite,47.37497,8.519782,Badenerstrasse 172,8004,2024-03-14T23:56,2024-03-15T00:00
e9f035b1-fc5b-4002-9b67-2c8f0bbc0cf4,Zürcher Kantonalbank,47.368065,8.539046,Talstrasse 12,8001,2024-03-14T23:56,2024-03-15T00:00
ca5cdb7a-b710-48ff-95fa-61d084f8476e,Rentenanstalt,47.362595,8.5348425,Breitingerstrasse 5,8002,2024-03-14T23:56,2024-03-15T00:00
ab920c62-02aa-4bb4-8bc7-822f7069cc8b,Turbinenplatz,47.38978,8.516692,Technoparkstrasse 4,8005,2024-03-14T23:56,2024-03-15T00:00
026918c7-4510-4ef6-953d-a3c550a76e47,Sihlpost,47.377357,8.535855,Kasernenstrasse 101,8004,2024-03-14T23:56,2024-03-15T00:00
f3d4a96d-f49f-47e2-97f5-98b61027f560,Museum für Gestaltung,47.382797,8.53545,Ausstellungsstrasse 44,8005,2024-03-14T23:56,2024-03-15T00:00
b6ab41b3-f966-4573-890c-125a52031dee,Bederbrücke,47.36514,8.530916,Gutenbergstrasse 1,8002,2024-03-14T23:56,2024-03-15T00:00
1406f7db-e33a-4905-9d04-e449c2e9b630,Bahnhof Hardbrücke,47.38674,8.518982,Geroldstrasse 4,8005,2024-03-14T23:56,2024-03-15T00:00
46f4e2bc-4870-4ff3-b803-2db8f0570d7b,"Werdstrasse, TX Group AG",47.372475,8.53001,Werdstrasse 21,8004,2024-03-14T23:56,2024-03-15T00:00
c4b1d76e-ea0a-4a74-b27f-01067315d2a5,Grünau,47.3964,8.486002,Grünauring 37,8064,2024-03-14T23:56,2024-03-15T00:00
70a2731c-23eb-4e07-8b14-5048eac02ba6,Steinfelsareal,47.38815,8.520449,Josefstrasse 224,8005,2024-03-14T23:56,2024-03-15T00:00
ed5e124a-e747-4136-b239-e20dc81488a8,Engehalde,46.9566,7.4402184,Engehaldenstrasse 26,3012,2024-03-14T23:56,2024-03-15T00:00
43820795-cfc7-4035-94c6-b728f29bbe1a,Mingerstrasse,46.95675,7.46789,Mingerstrasse 20,3006,2024-03-14T23:56,2024-03-15T00:00
653baff5-0b45-4016-be7e-4a926e124a3a,Rennweg,47.373936,8.538633,Bahnhofstrasse 66,8001,2024-03-14T23:56,2024-03-15T00:00
057de2fe-2dc7-47c0-b173-bfd7d6dce9fe,PostAuto Engehalde,46.957527,7.440576,Engehaldenstrasse 37,3012,2024-03-14T23:56,2024-03-15T00:00
01162212-24d4-435a-b963-52310abe4aec,SBB Hilfikerstrasse,46.96845,7.46242,Schädelinstrasse 4,3014,2024-03-14T23:56,2024-03-15T00:00
79d55eca-8817-4598-9b6c-845f5b495a61,Place du Marché,46.53781,6.581462,Rue du Midi,1020,2024-03-14T23:56,2024-03-15T00:00
a4f3962f-836b-4447-a1c2-5039be064712,Utogrund,47.37852,8.496727,Albisriederstrasse 200,8047,2024-03-14T23:56,2024-03-15T00:00
83d60385-7ceb-4885-8fb2-4144ff53fcf4,Hardau,47.381355,8.510418,Bullingerstrasse 73,8004,2024-03-14T23:56,2024-03-15T00:00
aed0ab31-16f4-4b82-8c4e-7e121ba04cb5,Klopstockwiese,47.36157,8.525525,Klopstockstrasse 23,8002,2024-03-14T23:56,2024-03-15T00:00
91d910a6-6dbb-4982-bc6c-f5846a9ef9a8,Stampfenbachplatz,47.37995,8.542726,Walchestrasse 11,8006,2024-03-14T23:56,2024-03-15T00:00
3c64ade9-a0e7-4a57-844d-65110660a6dd,Werd,47.37233,8.52714,Werdstrasse 75,8004,2024-03-14T23:56,2024-03-15T00:00
bfd659f4-ef22-431c-a3b5-1fa4d00912d3,Luggwegstrasse VBZ,47.386597,8.490837,Badenerstrasse 627,8048,2024-03-14T23:56,2024-03-15T00:00
5500d47c-ae94-4245-8009-50eea34b3ce8,Strandbad Mythenquai,47.35538,8.535119,Mythenquai 95,8002,2024-03-14T23:56,2024-03-15T00:00
dd5edc3b-838d-4c37-82fd-3892b1382d32,Predigerplatz,47.373676,8.545505,Predigerpatz 21,8001,2024-03-14T23:56,2024-03-15T00:00
fd1a7f9b-4ca1-431c-91c8-31737abdef14,Zwinglihaus,47.37187,8.515558,Aemtlerstrasse 23,8003,2024-03-14T23:56,2024-03-15T00:00
6aece96d-7c73-4db3-a3e1-0ff65d82b25c,Josefwiese,47.38572,8.524762,Otto-Str. 25,8005,2024-03-14T23:56,2024-03-15T00:00
e0a1ad13-cecb-4e23-9c5d-06f35423b279,"Nyon, Débarcadère",46.38278,6.24357,Rue de Rive 24-28,1260,2024-03-14T23:56,2024-03-15T00:00
6cec5911-0010-4497-98e2-7fc1b2efe327,"Eysins, Terre Bonne Park",46.38347,6.2137814,Route de Crassier 13,1262,2024-03-14T23:56,2024-03-15T00:00
3051b8c7-6490-4b90-bcfa-4747e3e8fe8a,"Nyon, Changins",46.39954,6.232108,Domaine de Changins,1260,2024-03-14T23:56,2024-03-15T00:00
77d2b016-5a75-4091-8024-3aaef4741cd1,Markthalle,47.38753,8.527138,Röntgenstrasse 87,8005,2024-03-14T23:56,2024-03-15T00:00
ee9db894-89ed-47a7-9b49-3aca7ec26ae1,Neuhausplatz,46.92904,7.4172263,Könizstrasse 249,3097,2024-03-14T23:56,2024-03-15T00:00
7d85d33f-7b3a-42dc-bfba-38901fb03e4d,Bellevuestrasse,46.926647,7.4359484,Bellevuestrasse 75,3095,2024-03-14T23:56,2024-03-15T00:00
0367e121-3da3-473b-a719-6c603cadd13b,Köniz Bahnhof,46.925022,7.4154377,Sonnenweg 22,3098,2024-03-14T23:56,2024-03-15T00:00
084076aa-badc-4f8c-9c00-5a69ea8bdb4a,Brühlplatz,46.926197,7.417231,Schwarzenburgstrasse 236,3098,2024-03-14T23:56,2024-03-15T00:00
cedf0cdc-e404-46b5-8529-2a003dd42c0d,Entsorgungshof Werkhof,46.916092,7.418571,Muhlernstrasse 101,3098,2024-03-14T23:56,2024-03-15T00:00
420ef7c9-9151-409b-98de-29d66148278e,Steinhölzli,46.93046,7.428167,Kirchstrasse 6a,3097,2024-03-14T23:56,2024-03-15T00:00
51479286-df9b-40e8-8e01-eb4303843552,Kronwiesen,47.403984,8.578718,Kronwiesenstrasse 35,8051,2024-03-14T23:56,2024-03-15T00:00
19eaabf4-8d31-412a-8201-2cafb693ece4,Zehntenhausplatz,47.41883,8.5064745,Wehntalerstrasse 541,8046,2024-03-14T23:56,2024-03-15T00:00
7df3bb8f-ec11-4d24-a2bf-b311870b7711,Kunsthaus,47.37087,8.548045,Heimplatz 1,8001,2024-03-14T23:56,2024-03-15T00:00
05a631a8-ee21-4694-b71b-ceafc5e15ebc,Central,47.375935,8.543447,Limmatquai 138,8001,2024-03-14T23:56,2024-03-15T00:00
3fc3abbb-2add-4430-867a-3e2f5c350d0d,Bleicherweg,47.366905,8.533736,Bleicherweg 33,8002,2024-03-14T23:56,2024-03-15T00:00
c61c50fe-b12e-484f-9955-bfaee010b481,Bellevue,47.366753,8.544935,Bellevueplatz 2,8001,2024-03-14T23:56,2024-03-15T00:00
4bc1c32b-2d64-4286-baee-5970d22a4888,Stauffacher,47.37423,8.528553,Stauffacherstrasse 41,8004,2024-03-14T23:56,2024-03-15T00:00
215b6424-7a05-42ae-ba6d-09134123198e,Escher-Wyss-Platz,47.3899,8.523722,Limmatstrasse 310,8005,2024-03-14T23:56,2024-03-15T00:00
ab400356-68d2-4af1-957e-1a329cdac07f,Unitobler Ost,46.954514,7.4294963,Muesmattstrasse 45,3012,2024-03-14T23:56,2024-03-15T00:00
da11a72e-bb3d-43d7-97eb-8b3e9219faf3,Mittelstrasse Süd,46.95342,7.4328275,Mittelstrasse 5,3012,2024-03-14T23:56,2024-03-15T00:00
0614bcca-6300-4a88-8202-4746f60cb374,Nationalbibliothek,46.941257,7.45071,Helvetiastrasse 21,3005,2024-03-14T23:56,2024-03-15T00:00
839be586-a806-47d9-9ee1-8eabddd3113d,Sattler-Gelateria,46.954735,7.433391,Mittelstrasse 18,3012,2024-03-14T23:56,2024-03-15T00:00
e29bdea2-f7ca-4e15-a7ad-f5e4fa1afc34,Hallerstrasse,46.952454,7.4354215,Hallerstrasse 9,3012,2024-03-14T23:56,2024-03-15T00:00
1b63257d-69e9-4144-9c3b-241657dd013c,Helvetiaplatz,46.944134,7.449692,Helvetiaplatz 1,3005,2024-03-14T23:56,2024-03-15T00:00
3aceb61a-dc5d-48a8-9634-8bc9eca47c99,Gare de Fribourg,46.802605,7.1509924,Avenue de la Gare 1,1700,2024-03-14T23:56,2024-03-15T00:00
299920e8-1903-4387-9ce4-362f9385654d,Fribourg-Gottéron,46.81522,7.155715,Rue de Morat,1700,2024-03-14T23:56,2024-03-15T00:00
f992aefc-0db0-4670-bc8d-2fd24883a5cd,Uni Pérolles,46.793373,7.1584206,Boulevard de Pérolles 95,1700,2024-03-14T23:56,2024-03-15T00:00
c4c7eff7-794a-42b7-86eb-44649089dd06,Schönberg,46.810406,7.1730614,Route de la Heitera 3,1700,2024-03-14T23:56,2024-03-15T00:00
e06d9cd7-ae69-4d00-9347-95c9f09a7f1e,Bourg,46.80666,7.162025,Place de Notre-Dame,1700,2024-03-14T23:56,2024-03-15T00:00
97058a7e-8a0d-48c9-8fab-a95d8f976dfb,Les Dailles,46.7948,7.114034,Route du Bugnon 38,1752,2024-03-14T23:56,2024-03-15T00:00
49207bc7-d62e-4f3b-ab1b-420a4249c84f,Mouline,46.526077,6.579268,Rue de la Mouline,1022,2024-03-14T23:56,2024-03-15T00:00
e55ade56-5add-4c76-9cd8-1534e22e4092,Ouchy,46.506897,6.626253,Place de la Navigation,1006,2024-03-14T23:56,2024-03-15T00:00
7c94289c-59b2-473f-a401-ae35b96d1db9,Colladon,46.51811,6.564945,Route J-D. Colladon,1015,2024-03-14T23:56,2024-03-15T00:00
cdd7f0b3-dbcd-457a-867c-288497f89b72,Casino,46.508488,6.499667,Place du Casino,1110,2024-03-14T23:56,2024-03-15T00:00
1496ee38-7126-4169-a0ed-5151a78918b3,Préverenges,46.517513,6.5261483,Route de Genève,1028,2024-03-14T23:56,2024-03-15T00:00
4bf8edb4-ae3e-49fa-a431-6ec466ede408,Lausanne Gare CFF Nord,46.517296,6.630497,Avenue de la Gare,1003,2024-03-14T23:56,2024-03-15T00:00
5e3d3cb3-5b20-4c83-823d-ae283fa00493,Medtronic,46.50225,6.481108,Route du Molliau 31,1131,2024-03-14T23:56,2024-03-15T00:00
b8c19e70-39ef-49a4-b1e2-f3193d5515ab,Gare de Renens,46.536797,6.5783405,Place de la gare,1020,2024-03-14T23:56,2024-03-15T00:00
6c21dbf9-5692-4cab-a612-e82f4268b86f,EPFL Innovation Park,46.517155,6.561272,Bâtiment G,1015,2024-03-14T23:56,2024-03-15T00:00
687ed91d-3da2-40ef-a6d0-62f2d8efea8e,Dammweg TX Group AG,46.955917,7.4467883,Dammweg 9,3013,2024-03-14T23:56,2024-03-15T00:00
c5b862e8-cd19-4f15-b8b7-69d7cdd6fda7,Fabrikstrasse Uni Bern,46.951973,7.4227467,Fabrikstrasse 2,3012,2024-03-14T23:56,2024-03-15T00:00
1e7ac642-f861-44ad-b5bb-305fa3fb58d3,Cormanon,46.793144,7.1322765,Route de la Berra 2,1752,2024-03-14T23:56,2024-03-15T00:00
9a32fd41-4e9b-4ec3-a153-cc304c3a8243,Gare de Villars-sur-Glâne,46.789974,7.1160135,Route des Préalpes 1,1752,2024-03-14T23:56,2024-03-15T00:00
f840f43d-926a-4b19-8092-3967b8e79a4e,Lamone - Cadempino FFS,46.040344,8.932433,Via Girella 49,6814,2024-03-14T23:56,2024-03-15T00:00
f00d6c5e-e490-4d89-a375-d2fc999ed567,Wyleregg,46.960354,7.4485855,Wylerstrasse 51,3014,2024-03-14T23:56,2024-03-15T00:00
5a7bb58f-9469-42d0-9f3b-b7134ca7457b,Molinazzo,46.01275,8.914699,Via Longa,6934,2024-03-14T23:56,2024-03-15T00:00
711e1401-55d2-4bce-9210-08da96601719,Bioggio Via Industria,46.020355,8.916114,Via Industria 31,6934,2024-03-14T23:56,2024-03-15T00:00
4c041893-36ac-40d5-ac23-7bcb6bd08928,Cappella-Agnuzzo FLP,45.993324,8.924532,Cappella-Agnuzzo,6925,2024-03-14T23:56,2024-03-15T00:00
79471fd9-3e2b-4bd0-8684-5c84e28bc9dc,Muzzano Industria,46.00048,8.912639,Via Industria,6933,2024-03-14T23:56,2024-03-15T00:00
0aaaaa9d-7a04-432a-80ca-c9aa0ff71510,Waisenhausplatz,46.949085,7.444436,Waisenhausplatz 21,3011,2024-03-14T23:56,2024-03-15T00:00
84fe0b1b-bb58-4ed6-a183-f29db8b1d600,Speichergasse PROGR,46.94979,7.444128,Waisenhausplatz 28,3011,2024-03-14T23:56,2024-03-15T00:00
e0ac4ebb-3f61-4c43-a71a-6b63cf81c327,Uni Muesmatt,46.9534,7.428555,Muesmattstrasse 29,3012,2024-03-14T23:56,2024-03-15T00:00
4f8e3ca4-37c7-41ec-967d-7cd691144747,Pauluskirche Bern,46.952686,7.42999,Freiestrasse 3,3012,2024-03-14T23:56,2024-03-15T00:00
a99f9ded-1a01-4504-ae55-80ab82050a91,Simsonbrunnen,46.948044,7.4502406,Kramgasse 40,3011,2024-03-14T23:56,2024-03-15T00:00
263a4611-ca01-488d-86d6-ff2ecbe5904f,Theaterplatz,46.9476,7.44735,Theaterplatz 4,3011,2024-03-14T23:56,2024-03-15T00:00
43d6811d-0309-413f-96cc-9508d942b9d1,Waldheim,46.95393,7.4267526,Freiestrasse 43,3012,2024-03-14T23:56,2024-03-15T00:00
27e3b2f6-fcee-4f75-9883-0d6b762dd6c5,Bundesgasse,46.946606,7.441624,Bundesgasse 3,3011,2024-03-14T23:56,2024-03-15T00:00
83fc342c-b40c-4daf-971a-2d5633e43b33,Lausanne Gare CFF Sud,46.51586,6.630461,Passage des Saugettes 7,1003,2024-03-14T23:56,2024-03-15T00:00
43d6f481-9635-4876-9f61-7a4551f16c4e,Nydegg,46.948635,7.4567437,Nydeggasse 13,3011,2024-03-14T23:56,2024-03-15T00:00
20147da3-0234-4f88-8a82-448f7dfef843,Postgasse,46.94868,7.453273,Postgasse 66,3011,2024-03-14T23:56,2024-03-15T00:00
6f462e9d-22ae-47d5-9168-b293146c74a4,Niederwangen Bahnhof,46.925747,7.37707,Freiburgstrasse 554a,3098,2024-03-14T23:56,2024-03-15T00:00
c946a770-f8f6-44e4-94eb-665a4da71933,Luegisland,47.40801,8.577703,Luegislandstrasse 412,8051,2024-03-14T23:56,2024-03-15T00:00
1a6cc70e-f3b9-4ac7-9955-bb3aabff248b,Seebad Utoquai,47.361336,8.547781,Utoquai 50,8008,2024-03-14T23:56,2024-03-15T00:00
d8cf7ba8-feff-43d1-a303-cc04daccb066,Ringoltingenstrasse,46.936657,7.4679885,Ringoltingenstrasse 21,3006,2024-03-14T23:56,2024-03-15T00:00
e6061104-2b4d-40e6-8701-d97c3e4c1e4f,Viganello,46.012135,8.965702,Via la Santa,6900,2024-03-14T23:56,2024-03-15T00:00
d70f4ae2-cd01-4cbf-b007-332713c25cfd,Via Ginevra,46.008286,8.951275,via Ginevra,6900,2024-03-14T23:56,2024-03-15T00:00
3178b070-cf38-4d12-9629-a036c30bb410,Lambertenghi,46.008095,8.957432,Via Bertaro Lambertenghi,6900,2024-03-14T23:56,2024-03-15T00:00
d8f5925d-15e3-4347-8fdd-210728026d19,Hochschulzentrum von Roll,46.953438,7.4239306,Fabrikstrasse 14,3012,2024-03-14T23:56,2024-03-15T00:00
10b10fb1-8e5d-4581-8d94-86ca7344586e,Hauptgebäude Uni Bern,46.950665,7.4370413,Falkenplatz 4,3012,2024-03-14T23:56,2024-03-15T00:00
691e0d4c-1e02-47d6-a368-a609222263a1,Unitobler West,46.954147,7.430717,Lerchenweg 37,3012,2024-03-14T23:56,2024-03-15T00:00
c1dc49bf-dc90-41c6-a424-19f5717a5cc4,Uni Mittelstrasse,46.95578,7.435266,Mittelstrasse 38,3012,2024-03-14T23:56,2024-03-15T00:00
bbbcd127-1635-4bb4-85b4-accad814f2d4,Marly - La Jonction,46.780495,7.1505766,Route de Fribourg 15,1723,2024-03-14T23:56,2024-03-15T00:00
001ee76e-f350-40fe-aef1-3e9b8f843b86,Zentweg,46.955513,7.476886,Zentweg 25,3006,2024-03-14T23:56,2024-03-15T00:00
ac2d13c6-24a9-4239-9341-492ace7735d5,Lake Side,47.3532,8.553189,Bellerivestrasse 170,8008,2024-03-14T23:56,2024-03-15T00:00
82d5a62a-5039-4e70-b395-1cbb9972d83f,Lochergut,47.37582,8.516676,Badenerstrasse 246,8004,2024-03-14T23:56,2024-03-15T00:00
701d760a-aea8-497a-aea6-587bd3f61922,PostParc Velostation (06:00-22:00)- INSIDE the building!,46.947857,7.436904,Schanzenstrasse 5,3008,2024-03-14T23:56,2024-03-15T00:00
eb5eb1d6-ac37-4b81-aaad-de612e62348b,Westpark,47.389862,8.514605,Pfingstweidstrasse 60,8005,2024-03-14T23:56,2024-03-15T00:00
65825e4b-3e87-4ba0-8616-5f01c470d290,Beatenplatz,47.37599,8.541239,Beatenplatz 1,8001,2024-03-14T23:56,2024-03-15T00:00
1da21e80-3d03-43a3-b870-602dbab61df2,Waldmeisterstrasse,46.939934,7.382512,Waldmeisterstrasse 36,3018,2024-03-14T23:56,2024-03-15T00:00
f8700a86-9ac6-433f-9335-d890da7cb695,Wander,46.93719,7.436089,Weissenbühlweg 36,3007,2024-03-14T23:56,2024-03-15T00:00
920c851e-673f-4967-8f26-5b5719ac153e,Steigerhubel,46.944035,7.4120407,Schlossstrasse 112,3008,2024-03-14T23:56,2024-03-15T00:00
daaffb6b-768b-416a-b4de-6b51d1c6d3f3,Wabernstrasse,46.938576,7.437862,Wabernstrasse 34,3007,2024-03-14T23:56,2024-03-15T00:00
cc1df9e7-e34c-4baa-b1a1-e9fee474189c,Zieglerstrasse,46.942974,7.4302387,Zieglerstrasse 62,3007,2024-03-14T23:56,2024-03-15T00:00
3385a5bb-0347-4fda-820b-d98dd6edce07,Eigerplatz,46.9414,7.4316926,Mühlemattstrasse 59,3007,2024-03-14T23:56,2024-03-15T00:00
98066bcf-a5ca-4f83-898d-e192d508465d,Eigerplatz Süd,46.94002,7.4317784,Seftigenstrasse 1,3007,2024-03-14T23:56,2024-03-15T00:00
ac7a6686-a8c2-41e3-8ba1-da9afae3312d,Quartier nord,46.522404,6.5655127,Campus,1000,2024-03-14T23:56,2024-03-15T00:00
5dc779bc-ee65-4d05-ac97-bd21925c57f4,Friedbühlstrasse,46.948013,7.4218926,Friedbühlstrasse 51,3008,2024-03-14T23:56,2024-03-15T00:00
15618aa2-5d21-45da-bba9-a51a3131377b,Monbijoubrücke,46.93965,7.4402413,Eigerstrasse 80,3007,2024-03-14T23:56,2024-03-15T00:00
ffe14b2a-1211-4796-acfe-8a456fac1137,Hallenbad Hirschengraben,46.94654,7.4356627,Maulbeerstrasse 17,3011,2024-03-14T23:56,2024-03-15T00:00
c630b3ee-ae0f-4406-bfd9-61d46cacaafc,Fischermätteli,46.940598,7.418738,Könizstrasse 73,3008,2024-03-14T23:56,2024-03-15T00:00
67c0e791-8bb7-42fe-bb5e-dc33551f3bd9,Schöneggweg,46.934704,7.4420357,Zinggstrasse 37,3007,2024-03-14T23:56,2024-03-15T00:00
ea54e243-248b-4f51-a6d9-570b689ceb15,Restaurant Dählhölzli,46.933647,7.448226,Tierparkweg 2,3005,2024-03-14T23:56,2024-03-15T00:00
71874e9c-0280-408c-91e7-7cb76be41913,Schenkstrasse,46.94588,7.41549,Huberstrasse 2,3008,2024-03-14T23:56,2024-03-15T00:00
8312a450-efb4-4873-97d1-c03e06714d90,Bahnhof Weissenbühl,46.936016,7.4300594,Südbahnhofstrasse 14b,3007,2024-03-14T23:56,2024-03-15T00:00
122779f4-6eb8-4909-ad43-39b8e9c9ef8b,Bärenpark,46.94787,7.4598937,Grosser-Muristalden 4,3006,2024-03-14T23:56,2024-03-15T00:00
a925b23c-2672-4ddc-a1aa-402e7ae4657b,Anshelmstrasse,46.938965,7.447628,Aegertenstrasse 49,3005,2024-03-14T23:56,2024-03-15T00:00
0343b4b9-6c9f-46c7-b93b-569df2a5eeb2,Bümpliz Post,46.941727,7.3930063,Keltenstrasse 106,3018,2024-03-14T23:56,2024-03-15T00:00
7ee3ec92-47fe-4e3a-8359-4a7496fee962,Cäcilienplatz,46.94167,7.42598,Brunnmattstrasse 55,3007,2024-03-14T23:56,2024-03-15T00:00
c2051a34-92e7-472f-b50d-baba0d92f0b5,Piazza Molino Nuovo,46.012253,8.955118,Piazza Molino Nuovo,6900,2024-03-14T23:56,2024-03-15T00:00
d4b26506-8511-46c2-86e9-d41b81c5cf8a,Aegerten,47.36894,8.523306,Erlachstrasse 3,8003,2024-03-14T23:56,2024-03-15T00:00
c03fa6a2-374d-484b-92f5-60260ed36b91,Hermann-Greulich-Strasse,47.378555,8.520168,Herman-Greulich-Strasse 56,8004,2024-03-14T23:56,2024-03-15T00:00
f3f3f85d-e598-4d4a-8fd6-c100115ca65c,Rigiplatz,47.384903,8.547904,Culmannstrasse 100,8006,2024-03-14T23:56,2024-03-15T00:00
358ff1bd-7484-4e8c-b5b5-2e5e07facdf5,Bahnhof Oerlikon Süd,47.411057,8.543768,Hofwiesenstrasse 369,8050,2024-03-14T23:56,2024-03-15T00:00
348a75cc-492d-4def-86e3-df296e4fb551,Max-Frisch-Platz,47.41273,8.544185,Jungholzstrasse 6,8050,2024-03-14T23:56,2024-03-15T00:00
49f4d7de-d75c-4e70-ac47-3405f970af5a,Hunziker-Areal,47.413033,8.558096,Andreasstrasse,8050,2024-03-14T23:56,2024-03-15T00:00
f25227b7-62bf-41e2-b097-54745fa2acc7,Louis-Häfliger-Park,47.412872,8.533265,Regina-Kägi-Strasse 1,8050,2024-03-14T23:56,2024-03-15T00:00
d097fc6e-b4be-4d1d-be9e-17d431723c75,Meierhofplatz,47.40185,8.499265,Limmattalstrasse 177,8049,2024-03-14T23:56,2024-03-15T00:00
65008877-4575-449d-9260-864827530918,Röschibachplatz,47.39331,8.528074,Röschibachstrasse 73,8037,2024-03-14T23:56,2024-03-15T00:00
ecb5e15a-26a9-4923-9469-7a2ec2268ab2,Oerliker Park,47.41572,8.538067,Birchstrasse 191,8050,2024-03-14T23:56,2024-03-15T00:00
08d2d6d7-972b-48ac-8154-9d7e58a8adaa,Capolago Stazione FFS,45.903313,8.979073,Via Famiglia Carlo Scacchi,6825,2024-03-14T23:56,2024-03-15T00:00
8c93f5e7-9d54-4962-8aed-864d30e1a9ac,Brückenstrasse BFH,46.942715,7.4410405,Brückenstrasse 73,3005,2024-03-14T23:56,2024-03-15T00:00
de4534b2-efd8-4777-838f-ef976440eea4,Brunnmattschulhaus,46.94581,7.4270477,Brunnmattstrasse 16,3007,2024-03-14T23:56,2024-03-15T00:00
74b05a9f-698d-4110-a7e2-6aa62855cd65,Via Dei Faggi,46.00901,8.963805,Viale dei Faggi,6900,2024-03-14T23:56,2024-03-15T00:00
fa0b2fcf-d3a8-422c-8ba2-aca530f28a6e,Bahnhof Altstetten,47.391365,8.488108,Altstetterplatz 1,8048,2024-03-14T23:56,2024-03-15T00:00
7af9dabb-f19a-48ad-88ff-426dc1d33186,Blatterwiese,47.35594,8.549852,Höschgasse 3,8008,2024-03-14T23:56,2024-03-15T00:00
2c1798a2-60f3-46d8-adaa-811c31a7feb6,Villa Bleuler,47.36162,8.554501,Feldeggstrasse 80,8008,2024-03-14T23:56,2024-03-15T00:00
0083515c-b683-4ee0-ba21-90a63fc77fe6,Luggweg,47.389824,8.49163,Luggwegstrasse 2,8048,2024-03-14T23:56,2024-03-15T00:00
4d59641e-ee75-4ca1-9894-a08f6598a2df,Mühlebachstrasse,47.35856,8.557088,Mühlebachstrasse 131,8008,2024-03-14T23:56,2024-03-15T00:00
1fff81d2-f80e-4fdc-9e39-d0a5fbcde7aa,Stazione FFS,46.00447,8.947096,Via Clemente Maraini P+R,6900,2024-03-14T23:56,2024-03-15T00:00
1d473f22-5088-46db-a742-fdc8e7c85e76,Vulkanplatz,47.392338,8.491061,Vulkanplatz 1,8048,2024-03-14T23:56,2024-03-15T00:00
e37f7c80-c9b6-48b8-9cfd-485b9f50b429,Lindenplatz,47.387684,8.486284,Lindenplatz 1,8048,2024-03-14T23:56,2024-03-15T00:00
7d85ecc8-ddbf-4802-99e1-33b7838ae00b,Manesseplatz,47.365273,8.52174,Manessestrasse 87,8045,2024-03-14T23:56,2024-03-15T00:00
a32ddd1b-eb7e-44ad-b2b0-0c18113fe55a,Bürkliplatz,47.367054,8.541683,Stadthausquai 1,8001,2024-03-14T23:56,2024-03-15T00:00
109a6e9c-6312-4826-85d3-12c56a07c21b,Kreuzplatz,47.365044,8.553922,Kreuzplatz 1,8032,2024-03-14T23:56,2024-03-15T00:00
1d6192cb-4b65-4725-a166-33793a305fee,Utoplatz,47.359882,8.523071,Kalendergasse 2,8045,2024-03-14T23:56,2024-03-15T00:00
a7cd1513-bec1-4c95-ac44-7edd2bff729c,Paudex,46.5058,6.6711,Route du Lac,1094,2024-03-14T23:56,2024-03-15T00:00
5caedd37-4bbb-4367-9737-67cd63d25887,Moulin,46.511047,6.492569,Gare de Morges,1110,2024-03-14T23:56,2024-03-15T00:00
c4e0dff3-7e95-4d5c-877f-9c41be9caec2,Dufour,46.50737,6.495352,Place Dufour,1110,2024-03-14T23:56,2024-03-15T00:00
0b1dee8a-a4b7-4c29-bfca-733af4ee1119,Sablon,46.510582,6.496026,Rue Centrale,1110,2024-03-14T23:56,2024-03-15T00:00
485a11b6-3fa8-4d15-9b73-0237467cc705,Grand-Rive,46.512993,6.614122,Avenue de Rhodanie 40,1007,2024-03-14T23:56,2024-03-15T00:00
176df5d9-a76d-4e85-9a46-2a1a06bc6f8a,Croset,46.53288,6.566487,Route du Bois 29a,1024,2024-03-14T23:56,2024-03-15T00:00
8321de4d-7409-464d-82fa-856daebd982e,Temple,46.510563,6.499863,Grand-Rue,1110,2024-03-14T23:56,2024-03-15T00:00
e06853f7-ca4e-44f5-bb4b-1024e5f6ba54,Gracieuse,46.51856,6.50736,Avenue de Lonay,1110,2024-03-14T23:56,2024-03-15T00:00
bd416073-f9b4-46fc-abe3-660763158b89,Halte de Malley,46.52635,6.603215,Avenue du Chablais,1008,2024-03-14T23:56,2024-03-15T00:00
2f09183f-5354-4081-9306-07d7c8852339,Longemalle,46.528046,6.591196,Avenue de Longemalle,1020,2024-03-14T23:56,2024-03-15T00:00
492e0247-3689-4dd9-8bdb-afe25648dda6,Morcote,45.9242,8.9192,Riva Dal Garavéll 8,6922,2024-03-14T23:56,2024-03-15T00:00
84cffa86-e23a-48d4-92bf-e7fa983739ec,Melide,45.953903,8.949715,Via alla Bola,6815,2024-03-14T23:56,2024-03-15T00:00
7a43ad1c-c7f5-4227-8d7b-ee0eebc6c8d1,Arte e Cultura LAC,45.99845,8.94848,Via Antonio Caccia,6900,2024-03-14T23:56,2024-03-15T00:00
c18c3d14-788e-4df6-9bf9-dd0939682725,Campo Marzio,46.005848,8.961709,Viale Castagnola 4,6900,2024-03-14T23:56,2024-03-15T00:00
e0d27320-42df-4ebe-9fe3-8188342cf4e1,Tesserete,46.065998,8.966679,Piazza Stazione,6950,2024-03-14T23:56,2024-03-15T00:00
c89241d1-95ab-4bce-8332-e4e402f6bfbd,Stadio,46.02316,8.959919,Via Trevano 100,6900,2024-03-14T23:56,2024-03-15T00:00
9359df78-f315-4e98-85ad-c1b0dc19dee2,Via Ciani,46.021942,8.962901,Via Giacomo E Filippo Ciani,6900,2024-03-14T23:56,2024-03-15T00:00
7b724734-4015-4edc-9474-93d7c2c6020b,Pregassona,46.02398,8.968292,Via Terzerina,6900,2024-03-14T23:56,2024-03-15T00:00
09dbfecf-5852-4762-badb-e48050b7962d,USI,46.010582,8.95794,Via Giuseppe Buffi 13,6900,2024-03-14T23:56,2024-03-15T00:00
47c8b84f-3ae6-46b0-8a3e-51ad0201bffc,Piazza Mercato/Contrada di Verla,46.005707,8.95184,Via Pretorio / Piazza Mercato,6900,2024-03-14T23:56,2024-03-15T00:00
6e5638bf-b613-4907-95c4-3d4bff0ab792,Fornaci,45.984764,8.932378,Via Pian Scairolo 9,6912,2024-03-14T23:56,2024-03-15T00:00
a7ab73ab-b0dd-4fec-b60c-2f9b56633ef3,Paradiso Centro,45.99108,8.943799,Via Franco Zorzi,6900,2024-03-14T23:56,2024-03-15T00:00
9f150a6f-26c6-48d4-b127-eb7e4ab4fd6f,Werdmühleplatz,47.374786,8.539882,Werdmühleplatz 1,8001,2024-03-14T23:56,2024-03-15T00:00
23c87ab2-db7c-4c4c-ba18-5bab4ff5f516,Holunderhof,47.40988,8.535767,Regensbergstrasse 195,8050,2024-03-14T23:56,2024-03-15T00:00
183ef82d-0992-465f-8567-78e2e3f517f6,Hochfeldstrasse,46.955605,7.428042,Länggassstrasse 74,3012,2024-03-14T23:56,2024-03-15T00:00
3ec4f6aa-9067-4c40-97dd-3d1e992d9cd9,SBB Wylerpark,46.961308,7.4466677,Wylerstrasse 123,3014,2024-03-14T23:56,2024-03-15T00:00
a3214c90-b2dc-469c-b94b-03d639d3866d,Weststrasse,47.37209,8.520482,Weststrasse 115,8003,2024-03-14T23:56,2024-03-15T00:00
eb333c54-31db-4bb7-b63c-41cf7071a1f7,"Nyon, Gare Nord",46.38421,6.23491,Route de Saint-Cergue 1,1260,2024-03-14T23:56,2024-03-15T00:00
f5655654-31bc-426a-bee9-795cd42fb5bb,"Gland, La Lignière",46.425926,6.28774,La Lignière,1196,2024-03-14T23:56,2024-03-15T00:00
76bb2329-1970-430f-9fd8-178d5d8964d1,"Nyon, Triangle de l'Etraz",46.39294,6.23856,Route de l'Etraz 70,1260,2024-03-14T23:56,2024-03-15T00:00
254633bf-912a-45dd-bfad-da9c9b32d1de,"Gland, Swissquote",46.417717,6.267441,Chemin de la Crétaux 2,1196,2024-03-14T23:56,2024-03-15T00:00
79b2cebf-f35d-4bd5-ac7c-cc0b3c0a39e9,"Gland, Les Tuillières",46.42238,6.2585273,Rue des Tuillières 1,1196,2024-03-14T23:56,2024-03-15T00:00
94bbfe05-79db-4564-954c-77eb95bcef63,"Gland, Gare Sud",46.420277,6.270556,Rue du Perron 2,1196,2024-03-14T23:56,2024-03-15T00:00
80716508-04b7-4311-90d1-b92c323fb4bc,"Gland, UICN",46.41609,6.278163,Rue Mauverney 28,1196,2024-03-14T23:56,2024-03-15T00:00
23836a97-65f7-40bb-b180-f0cfdf9e1967,Europaplatz,46.943604,7.407178,Freiburgstrasse 130,3008,2024-03-14T23:56,2024-03-15T00:00
cdd9e6d4-0279-49d4-99ee-8cfba96cb108,Statthalterstrasse,46.939358,7.3863864,Freieckweg 2,3018,2024-03-14T23:56,2024-03-15T00:00
d4df0897-0f1e-4fb5-bb8b-6124b97331eb,Kleefeld,46.937206,7.3872275,Mädergutstrasse 5,3018,2024-03-14T23:56,2024-03-15T00:00
6a171e92-8d70-4222-92e6-a3664fea1ae5,Schwabgut,46.94547,7.3928103,Schwabstrasse 10,3018,2024-03-14T23:56,2024-03-15T00:00
0c1660fb-a539-4790-909b-2cdd9f7ccb9d,Gäbelbach,46.947712,7.3774724,Colombstrasse 11,3027,2024-03-14T23:56,2024-03-15T00:00
88650a6b-47fc-450f-a4b5-b49ea8ef2248,Bahnhof Bümpliz Süd,46.937897,7.395474,Bümplizstrasse 187,3018,2024-03-14T23:56,2024-03-15T00:00
427be8cf-d422-478f-84e3-2a7f41a9f62b,Stadion Wankdorf,46.96274,7.46276,Morgartenstrasse 1,3014,2024-03-14T23:56,2024-03-15T00:00
13acf66d-50a7-4ab1-8da8-45b1a2658e70,Sonnenhofspital,46.943203,7.4735436,Buchserstrasse 26,3006,2024-03-14T23:56,2024-03-15T00:00
77ac67ce-0c05-44f6-9b91-8d98f0547b1e,Tscharnergut,46.948975,7.388233,Waldmannstrasse 31,3027,2024-03-14T23:56,2024-03-15T00:00
544aa740-f770-4c17-a3b8-98de4843ecc8,Bigogno - Campo sportivo,45.972202,8.915525,Via Collina d'Oro,6926,2024-03-14T23:56,2024-03-15T00:00
accaaceb-39a9-4119-89b8-8efac64b993c,Place de l’Europe,46.52047,6.630836,Place Centrale,1003,2024-03-14T23:56,2024-03-15T00:00
fe6b4238-90f5-4d2c-91f0-5aeab1ed617f,Bahnhof Stadelhofen,47.36691,8.548562,Galerie über Gleis 3,8001,2024-03-14T23:56,2024-03-15T00:00
7a739f28-50bf-4394-ad3e-143866c1ebe7,Tüffenwies,47.398556,8.493822,Meierwiesenstrasse 12-4,8064,2024-03-14T23:56,2024-03-15T00:00
bce2ab34-072f-481b-b301-061b09e196b6,Holenackerstrasse,46.949417,7.3814545,Holenackerstrasse 24,3027,2024-03-14T23:56,2024-03-15T00:00
4bdb54ac-c864-47b0-b1a5-1077da7f37d3,Technopark,46.935852,7.390354,Weidgasse 2,3018,2024-03-14T23:56,2024-03-15T00:00
10854bc4-f8bd-4f98-b979-9a3df390839a,Montagnola Piazza Brocchi,45.982056,8.918121,Piazza Brocchi,6926,2024-03-14T23:56,2024-03-15T00:00
cb9866b3-27f1-4d24-8572-8239a087cd99,Massagno,46.012554,8.943487,"via dei Platani,",6908,2024-03-14T23:56,2024-03-15T00:00
45254ea5-e6c7-4feb-8c35-82d87ff8e397,Markuskirche,46.963512,7.4555216,Winkelriedstrasse 56,3014,2024-03-14T23:56,2024-03-15T00:00
4120df37-6550-433b-a17f-2a41c5628807,Hallerstrasse West,46.95386,7.436567,Zähringerstrasse 13,3012,2024-03-14T23:56,2024-03-15T00:00
81a43c08-a1d9-45ea-8afd-13081a71499a,Sporthalle Weissenstein,46.937107,7.4178247,Hardeggerstrasse 1,3008,2024-03-14T23:56,2024-03-15T00:00
23c31f49-1550-4824-8566-6cc2b5377c4d,Stapfenacker,46.943928,7.3853054,Brünnenstrasse 61,3018,2024-03-14T23:56,2024-03-15T00:00
efcba54c-5155-48c0-b685-8da6f310f663,Seminar,46.942734,7.4595456,Seminarstrasse 15,3006,2024-03-14T23:56,2024-03-15T00:00
d69d3f5e-0f39-4e23-9576-66b09459dc71,Zentrum Paul Klee,46.95099,7.472626,Undo-endo 24a,3006,2024-03-14T23:56,2024-03-15T00:00
23924302-32ed-4849-acab-f324bdfef6ed,Kapellenstrasse BFF,46.94422,7.436674,Kapellenstrasse 8,3011,2024-03-14T23:56,2024-03-15T00:00
6ba104ac-222d-4305-a4f8-a6b882c16959,Ka-We-De,46.935608,7.4471426,Jubiläumsstrasse 101,3005,2024-03-14T23:56,2024-03-15T00:00
fb46edf1-2a9f-4f53-b802-606d62e4f8fa,Jolimontstrasse,46.941555,7.4708853,Jolimontstrasse 18,3006,2024-03-14T23:56,2024-03-15T00:00
17e727eb-b2dc-457b-b252-c401cf52cfd8,Haslerstrasse,46.945084,7.432452,Haslerstrasse 4,3008,2024-03-14T23:56,2024-03-15T00:00
ca19fff8-9457-40ea-90c4-6ab21e5a7731,Marzilibad,46.942444,7.4431195,Marzilistrasse 29,3005,2024-03-14T23:56,2024-03-15T00:00
a1ebedce-8864-47d2-853d-5de3d3ef5651,Marzilibahn,46.94468,7.443264,Brückenstrasse 20,3005,2024-03-14T23:56,2024-03-15T00:00
49a49426-99cf-4b09-b435-d4a5a471e9f7,Kocherpark,46.94603,7.4332166,Effingerstrasse 27,3008,2024-03-14T23:56,2024-03-15T00:00
bd8f6719-5998-4c9e-8e61-dc68659cc500,Monbijoustrasse,46.941032,7.4359174,Monbijoustrasse 61,3007,2024-03-14T23:56,2024-03-15T00:00
d5fec667-20ce-477d-9811-033e4f7c00f0,Post IT Zollikofen,47.00268,7.44109,Webergutstrasse 12,3052,2024-03-14T23:56,2024-03-15T00:00
297c76ea-750a-47ca-8793-6af0a60cc28c,Egelgasse-Ostring,46.943806,7.4694266,Egelgasse 72,3006,2024-03-14T23:56,2024-03-15T00:00
25dd3b38-db6f-4c67-8ba0-4218b8842e73,Mongevon,46.54873,6.57476,Chemin de Mongevon 4,1023,2024-03-14T23:56,2024-03-15T00:00
0fa5ab7a-4ae3-4308-ab2e-efe05d95b56e,Burgernziel,46.94148,7.466444,Muristrasse 64,3006,2024-03-14T23:56,2024-03-15T00:00
b6c31730-80fa-4d2c-abbc-fc725ee401a5,Thunplatz,46.9403,7.458608,Thunplatz 52,3005,2024-03-14T23:56,2024-03-15T00:00
54c175c5-0d9e-4bb9-8c0a-918eaa65f6a9,Bahnhofplatz Mobile Station Bern 4,46.94831,7.44035,Spitalgasse 44,3011,2024-03-14T23:56,2024-03-15T00:00
0732e6d2-c8fa-4a45-8aad-2dced07de25e,Nationalbank,46.946888,7.4458303,Inselgasse 1,3011,2024-03-14T23:56,2024-03-15T00:00
6baf8c73-8678-41a5-b9d1-35c1fd912122,Hallwylstrasse,47.37014,8.527298,Hallwylstrasse 71,8004,2024-03-14T23:56,2024-03-15T00:00
86466768-04bb-4c0b-ac07-ce34fe881eca,Milchbuck,47.397293,8.541453,Schaffhauserstrasse 137,8057,2024-03-14T23:56,2024-03-15T00:00
dc9aa416-7731-482e-9fdd-f4ec8c0779ff,Fischerweg,47.393364,8.512551,Hardturmstrasse 161,8005,2024-03-14T23:56,2024-03-15T00:00
3c47a648-6869-4e84-8a59-0f0ff34929da,Kirche Unterstrass,47.3877,8.542146,Turnerstrasse 47,8006,2024-03-14T23:56,2024-03-15T00:00
1adc14c3-1ab2-4432-8ac4-15339380901b,Rossfeld,46.971794,7.4457617,Rossfeldstrasse 7,3004,2024-03-14T23:56,2024-03-15T00:00
7370678a-56fc-4ce2-8ff6-183e2e6283f0,Forel,46.520203,6.571784,Avenue Forel,1015,2024-03-14T23:56,2024-03-15T00:00
5f42f2fa-0c46-4f11-98ae-a13cef94b587,Egghölzli,46.936634,7.475831,Egghölzlistrasse 3A,3006,2024-03-14T23:56,2024-03-15T00:00
c4f1ec1e-32a9-401e-b002-b3a5dc0638f6,Freies Gymnasium,46.959335,7.4349093,Hochfeldstrasse 115,3012,2024-03-14T23:56,2024-03-15T00:00
f1d78352-a234-44f2-bb2f-489c7ace2006,Mattelift,46.946465,7.452518,Badgasse 21,3011,2024-03-14T23:56,2024-03-15T00:00
3fee040a-a65b-4e90-8f4e-48b2504607c7,GVB,46.970947,7.472052,Papiermühlestrasse 130,3063,2024-03-14T23:56,2024-03-15T00:00
7db67f73-1cc4-4c03-b5f6-51cc6dfec87a,Binz Center,47.36221,8.510788,Grubenstrasse 52,8045,2024-03-14T23:56,2024-03-15T00:00
96946e15-2905-464d-99da-81caf065f318,Via Crocetta,46.01594,8.966828,Via Crocetta,6900,2024-03-14T23:56,2024-03-15T00:00
8a11ee34-0f64-4643-8176-118c57c2c479,Ospedale Italiano di Lugano,46.009712,8.96008,Via Pietro Cappelli,6900,2024-03-14T23:56,2024-03-15T00:00
ef50f36a-f606-419a-9aed-1f43412c7496,Casa Serena,46.014126,8.959087,Via Marco da Carona 10-12,6900,2024-03-14T23:56,2024-03-15T00:00
9e19701d-7bdd-40d9-b227-36659b29e1c2,Via Ceresio,46.01876,8.96429,Via Ceresio,6900,2024-03-14T23:56,2024-03-15T00:00
eca1d03f-19da-4e8c-97ef-111005fd599e,Piazza Manzoni,46.00365,8.952904,Piazza Manzoni,6900,2024-03-14T23:56,2024-03-15T00:00
f0227895-102d-408e-b342-f9009c72d75c,Via Beltramina,46.016613,8.959651,Via Beltramina 16,6900,2024-03-14T23:56,2024-03-15T00:00
a0b83d14-72a7-4fd4-9378-fe6952a70f1a,Paradiso Stazione FFS,45.989124,8.946661,Via Carona,6900,2024-03-14T23:56,2024-03-15T00:00
23798dc2-a428-4fdd-bce5-5d5bfbc70f7d,Hallenbad Oerlikon,47.409546,8.556346,Kühriedweg,8050,2024-03-14T23:56,2024-03-15T00:00
b56639b3-62c6-4ed3-8db6-198a158e3957,Sackzelg,47.375248,8.496511,Letzigraben 139,8047,2024-03-14T23:56,2024-03-15T00:00
38ff2ba5-35ba-4d17-a023-9968565b43a4,Gutstrasse,47.371456,8.507056,Gutstrasse 87,8055,2024-03-14T23:56,2024-03-15T00:00
c2a03cbc-9049-4ba0-95a4-566186a2e8d0,Freibad Letzigraben,47.379684,8.501312,Letzigraben 43,8003,2024-03-14T23:56,2024-03-15T00:00
be0f0b60-fa26-4f03-acd9-f16c0b7ce66d,Binzallee,47.36637,8.514176,Talwiesenstrasse 92,8055,2024-03-14T23:56,2024-03-15T00:00
28d0f724-972b-4304-bb10-1dffcad7a974,Römerweg,46.95824,7.447486,Turnweg 19,3013,2024-03-14T23:56,2024-03-15T00:00
34effc75-d3bc-4f32-a004-f50df26e52aa,Gasometerstrasse,47.383858,8.528796,Gasometerstrasse 24,8005,2024-03-14T23:56,2024-03-15T00:00
c5f35fd3-9335-482e-ad49-55f7cb365b9c,Bahnhof Tiefenbrunnen,47.35058,8.560587,Bellerivestrasse 245,8008,2024-03-14T23:56,2024-03-15T00:00
c40165f2-823a-48e6-aa53-3fdddb407ef6,Hardplatz,47.381916,8.515252,Sihlfeldstrasse 175,8004,2024-03-14T23:56,2024-03-15T00:00
e3091797-d8ac-48c1-99d6-2d8829569b52,Rieterplatz,47.356388,8.526158,Waffenplatzstrasse 89,8002,2024-03-14T23:56,2024-03-15T00:00
5ffa9f1c-d578-4891-ac6d-340551e52074,Flurpark,47.38364,8.494127,Flurstrasse 62,8048,2024-03-14T23:56,2024-03-15T00:00
3ecc4050-26b6-4008-94c0-c3d20e3f2ecc,Letzipark,47.38571,8.499287,Baslerstrasse 51,8048,2024-03-14T23:56,2024-03-15T00:00
faa8b9e8-04ae-4d6e-86c4-faa42d637ee2,Innere Enge,46.961685,7.439614,Engestrasse 54a,3012,2024-03-14T23:56,2024-03-15T00:00
6721e07b-9ad4-4479-83fd-f8bbbab2911f,Wankdorffeldstrasse,46.96503,7.4589906,Wankdorffeldstrasse 97,3014,2024-03-14T23:56,2024-03-15T00:00
27531fa0-a77d-4ca4-af5a-9c821d0e745a,Kursaal,46.952526,7.4498353,Sonnenbergstrasse 14,3013,2024-03-14T23:56,2024-03-15T00:00
1db2c7ba-e51b-4e18-aebe-4750dae6a408,Giacomettistrasse,46.945805,7.472932,Giacomettistrasse 25,3006,2024-03-14T23:56,2024-03-15T00:00
293f6b60-f489-4354-a47b-60955a7eba4a,Bethlehemstrasse Säge,46.947067,7.3957644,Untermattweg 80,3027,2024-03-14T23:56,2024-03-15T00:00
e0dffb09-45eb-46ba-bba5-b2685c846a78,Spitalacker Schulhaus,46.95583,7.4529967,Beundenfeldstrasse 13,3013,2024-03-14T23:56,2024-03-15T00:00
1c39e528-b089-4529-ba72-f530da515299,Allmendstrasse,46.959347,7.451804,Allmendstrasse 24,3014,2024-03-14T23:56,2024-03-15T00:00
c4a8b8a8-ee27-420e-aec2-4539974d5f8b,Melchiorstrasse,46.952374,7.391492,Kasparstrasse 15a,3027,2024-03-14T23:56,2024-03-15T00:00
7fbecf1f-3660-4b45-98e3-730a0be20445,Kirche St. Antonius,46.93992,7.3950334,Morgenstrasse 56,3018,2024-03-14T23:56,2024-03-15T00:00
fc62468c-3693-485f-92a1-68f4de70a35f,Riedbachstrasse Park,46.945038,7.3791685,Riedbachstrasse 77,3027,2024-03-14T23:56,2024-03-15T00:00
f100a7da-8b96-409f-b319-015462b85cfb,Schwabstrasse Kreisel,46.943817,7.3955827,Keltenstrasse 41,3018,2024-03-14T23:56,2024-03-15T00:00
a3220462-7631-4a64-9e7e-4f5254518c99,Weyermannshaus Bad,46.947742,7.4035716,Stöckackerstrasse 9,3027,2024-03-14T23:56,2024-03-15T00:00
f5ee9294-29d6-4469-a144-8c3b9a0c9c92,Junkerngasse,46.9478,7.454056,Junkerngasse 30,3011,2024-03-14T23:56,2024-03-15T00:00
36f1a958-370f-466d-8523-d8b0a19733e3,Predigergasse,46.949196,7.445947,Predigergasse 6,3011,2024-03-14T23:56,2024-03-15T00:00
f2c9f5e3-41dc-470e-974e-9484f7be291f,Depotstrasse,46.950104,7.428378,Depotstrasse 2,3012,2024-03-14T23:56,2024-03-15T00:00
43a7ba86-95e3-4ed6-a76f-e300a19bfef3,Münster,46.94753,7.4521275,Münstergasse 2,3011,2024-03-14T23:56,2024-03-15T00:00
f88f3266-7c2b-4557-b657-d3ff50ef1ca1,Kleine Schanze,46.945984,7.439418,Schwanengasse 14,3011,2024-03-14T23:56,2024-03-15T00:00
bc944ea0-0fc7-42d9-a683-dd42186feb4d,Dampfzentrale,46.940693,7.4431486,Marzilistrasse 45,3005,2024-03-14T23:56,2024-03-15T00:00
2fe7f908-d3ae-4df0-880d-8a925d34a90f,Neufeldstrasse Ost,46.958145,7.4349895,Neufeldstrasse 129,3012,2024-03-14T23:56,2024-03-15T00:00
109acca4-99bb-451d-ad98-2461ae6cc5ac,Beaumont,46.937107,7.43224,Seftigenstrasse 41,3007,2024-03-14T23:56,2024-03-15T00:00
46866cdc-475b-46b1-9361-7817b8a04a74,General-Guisan-Quai,47.364872,8.537971,General-Guisan-Quai 17,8002,2024-03-14T23:56,2024-03-15T00:00
6e72c0ec-bb50-44a3-a79e-1155b7d5ecee,Holenacker Station,46.94862,7.3827534,Bethlehem b. Bern Holenacker,3027,2024-03-14T23:56,2024-03-15T00:00
ce549a87-2e65-40c8-b740-d06f226b3fe2,Zieglerspital,46.932022,7.4330473,Heckenweg 63,3007,2024-03-14T23:56,2024-03-15T00:00
dc3123e3-baee-4186-b357-d01f42963a3d,Fellerstrasse,46.94695,7.3889484,Fellerstrasse 30,3027,2024-03-14T23:56,2024-03-15T00:00
0d4050da-2613-4568-b3cb-02cc5b759b28,Waldmannstrasse,46.947308,7.393211,Waldmannstrasse 5,3027,2024-03-14T23:56,2024-03-15T00:00
c7ac513f-a013-4676-80b5-36f136f15672,Friedheimweg SECO,46.936443,7.437876,Friedheimweg 9f,3007,2024-03-14T23:56,2024-03-15T00:00
abfd5117-19cd-4dcd-a48a-bc2ac971be3e,Beaumontweg,46.939087,7.428641,Schwarzenburgstrasse 21,3007,2024-03-14T23:56,2024-03-15T00:00
609a7adf-a529-4303-91ee-1038ce07e46e,Seilerstrasse,46.945602,7.434734,Seilerstrasse 22,3011,2024-03-14T23:56,2024-03-15T00:00
8e6f999c-cc02-450f-923d-b1012fed0494,Stämpflistrasse,46.943287,7.4144034,Stoosstrasse 2,3008,2024-03-14T23:56,2024-03-15T00:00
70a0023b-26f1-4f1b-86fb-5136887d1145,Riponne,46.523857,6.63293,Place de la Riponne 7,1005,2024-03-14T23:56,2024-03-15T00:00
9a72c603-76a3-4e12-9bb4-7fdd431f942b,"Avenue de la Gare, TX Group SA",46.51701,6.635237,Avenue de la Gare 12A,1003,2024-03-14T23:56,2024-03-15T00:00
a2f04455-5aae-433e-93f9-cd419441fa52,Chauderon,46.523335,6.625402,Place Chauderon 11,1003,2024-03-14T23:56,2024-03-15T00:00
adadc0dc-1256-4d6b-a6ea-1b866731095e,Sanpol Bern,46.950306,7.414581,Murtenstrasse 111,3008,2024-03-14T23:56,2024-03-15T00:00
95d90bfa-521c-40fd-83cb-8ab68ab83e9c,Hirzenbachstrasse,47.40158,8.58841,Hirzenbachstrasse 2-4,8051,2024-03-14T23:56,2024-03-15T00:00
04fd2ea3-1db2-4231-ad8b-58cf18d2cb64,Prilly-Centre,46.53413,6.606292,Route de Cossonay 28,1008,2024-03-14T23:56,2024-03-15T00:00
4c1a8f5b-11e4-4f58-8db1-cc5c4d5af63a,Wylerbad,46.965034,7.451465,Scheibenstrasse 65c,3014,2024-03-14T23:56,2024-03-15T00:00
ad0ca99d-6ed2-462f-9c77-129d0a7e3906,Caslano Piazza Lago,45.970196,8.883746,Piazza Lago,6987,2024-03-14T23:56,2024-03-15T00:00
213dee52-3531-4f60-a8b0-4ff06f8f8c87,Liebefeld Park,46.929626,7.4209414,Bündenackerstrasse 1,3098,2024-03-14T23:56,2024-03-15T00:00
1ad79a09-7006-466c-a015-f337ff747b06,Breitenrainplatz,46.957947,7.453775,Moserstrasse 33,3013,2024-03-14T23:56,2024-03-15T00:00
d01ef299-556e-4f53-b571-03292fe1b448,"Rolle, Gare",46.46264,6.33681,Avenue de la gare 29,1180,2024-03-14T23:56,2024-03-15T00:00
8f653160-307f-41e6-ae00-5132740d3a66,"Nyon, Place de Savoie",46.3803,6.240988,"Nyon, Place de Savoie",1260,2024-03-14T23:56,2024-03-15T00:00
4a161fdf-0bc7-4105-ab93-a5c14c67cec6,"Nyon, Piscine du Cossy",46.388985,6.2236705,Route de Signy 21,1260,2024-03-14T23:56,2024-03-15T00:00
737bd3ed-0513-4f06-9657-2794acd8027f,"Rolle, Camping",46.46161,6.346166,Chemin de la Plage 4,1180,2024-03-14T23:56,2024-03-15T00:00
cab54e3f-2a16-4219-bbc0-bca0611117b0,"Nyon, Château",46.381577,6.24031,Rue Maupertuis 2,1260,2024-03-14T23:56,2024-03-15T00:00
c6b25257-331e-4c3e-b2ad-ac227e93b930,"Bursins, Place du Soleil",46.452187,6.29106,Place du Soleil,1183,2024-03-14T23:56,2024-03-15T00:00
0de00fa0-c3a7-42d0-b0d2-2888cefa8fc8,"Gland, Eikenott",46.42708,6.26574,Allée du Communet,1196,2024-03-14T23:56,2024-03-15T00:00
f900f4d4-8922-4dff-995a-efbdf366c952,"Gland, La Falaise",46.419163,6.2887096,Chemin de la Falaise,1196,2024-03-14T23:56,2024-03-15T00:00
bd1491c5-a4fc-4657-b67b-c095d2c810de,"Gland, En Bord",46.42783,6.2765923,Chemin du Lavasson,1196,2024-03-14T23:56,2024-03-15T00:00
2f089d58-9624-4e2e-8aa9-eb9028d86f54,"Mies, Administration",46.304424,6.1697526,Route de Veytey,1295,2024-03-14T23:56,2024-03-15T00:00
8928417e-f032-4858-8349-587a654c8ff1,Hôpital Fribourgeois,46.801804,7.136609,Chemin des Pensionnats,1752,2024-03-14T23:56,2024-03-15T00:00
662857da-fc8c-4a68-b2eb-2ab8f176a609,MediaParc,46.794594,7.132707,Rue du Centre 7,1752,2024-03-14T23:56,2024-03-15T00:00
00e0c2a1-83d7-406e-a5b5-3cbbf498a428,La Neuveville,46.8038,7.161559,Rue de la Neuveville 37,1700,2024-03-14T23:56,2024-03-15T00:00
896fda26-dac3-4caa-a981-7c4891bbe816,Ziegelei Märit,46.99731,7.4587965,Märitgasse 1,3052,2024-03-14T23:56,2024-03-15T00:00
161093ae-e468-4319-97e7-6f545df5ef36,Geisshubel Zollikofen,46.99997,7.442087,Im Kläyhof 2,3052,2024-03-14T23:56,2024-03-15T00:00
6a7ee41b-efc5-4b33-8f46-011accc0c3f1,Jägerweg,46.933693,7.423407,Schwarzenburgstrasse 105,3097,2024-03-14T23:56,2024-03-15T00:00
2641853a-82cf-4838-9e2a-a42cd8a4f94e,Unterzollikofen Bahnhof,46.992023,7.457369,Lätternweg 6,3052,2024-03-14T23:56,2024-03-15T00:00
a14966b7-ac86-494f-8d7f-4bcc0d10db9c,Wabern Zentrum,46.928986,7.450278,Waldblickstrasse 8,3084,2024-03-14T23:56,2024-03-15T00:00
1f7c6878-c380-451a-804b-2d28012cae9d,Sandrain,46.93136,7.446041,Seftigenstrasse 186a,3098,2024-03-14T23:56,2024-03-15T00:00
bedb1ae8-179c-45f2-80d0-34e23f291e5e,Casinoplatz,46.946518,7.448146,Casinoplatz 3,3011,2024-03-14T23:56,2024-03-15T00:00
7ed9c448-6340-4f93-b2bf-027989609418,Sternen Muri,46.931587,7.485518,Thunstrasse 74a,3074,2024-03-14T23:56,2024-03-15T00:00
5575f901-02b6-422a-91a2-ab7032694dbe,Bahnhof Gümligen,46.93357,7.5050707,Worbstrasse 210,3074,2024-03-14T23:56,2024-03-15T00:00
cdf3ddaa-dfee-4606-b131-22fe9d642de2,Spital Tiefenau,46.974842,7.453275,Tiefenaustrasse 110,3004,2024-03-14T23:56,2024-03-15T00:00
d76b9721-c477-4688-8e66-32495c8e5b0f,Bahnhof Stettbach,47.397884,8.596202,Bahnhof Stettbach,8051,2024-03-14T23:56,2024-03-15T00:00
6aedad15-a7ea-4f0e-b5c9-15fa88239a6e,Sihlquai,47.380337,8.537684,Sihlquai 25,8005,2024-03-14T23:56,2024-03-15T00:00
47e69b77-c137-474c-ab9d-c52253ac8325,Hottingerplatz,47.369015,8.554398,Kasinostrasse 10,8032,2024-03-14T23:56,2024-03-15T00:00
e7b6f82f-7cfd-4b0d-8c53-6ba2a915a637,Burgfeld,46.95907,7.477758,Mittelholzerstrasse 30,3006,2024-03-14T23:56,2024-03-15T00:00
905a8b58-34e9-4fd4-a004-1c233dbe2920,Oberdorf,47.39572,8.62328,Alte Oberdorfstrasse 15,8600,2024-03-14T23:56,2024-03-15T00:00
66d76a20-2eb9-490f-a48f-2560e07ce3a5,Bahnhof Opfikon,47.430912,8.562033,Schaffhauserstrasse 64,8152,2024-03-14T23:56,2024-03-15T00:00
08833752-92d0-4a1b-99d6-7a26003ee08f,Flugplatz Dübendorf,47.40245,8.62726,Wangenstrasse 47-39,8600,2024-03-14T23:56,2024-03-15T00:00
5f6e9a45-c170-4ebc-8a70-91696ceb6155,Stadthaus Dübendorf,47.39733,8.61865,Usterstrasse 1,8600,2024-03-14T23:56,2024-03-15T00:00
8063f47a-e04b-46b4-be94-dd03c9294efe,Schluefweg,47.444515,8.582115,Schluefweg 10,8302,2024-03-14T23:56,2024-03-15T00:00
26c775c7-16d2-47ce-91ed-5f5ee7616ec0,Bahnhof Glattbrugg,47.43117,8.55845,Bahnhofplatz 1,8152,2024-03-14T23:56,2024-03-15T00:00
83c484f5-a13c-4b0f-969e-8f0c585ba2c6,Bahnhof Dübendorf,47.400394,8.622367,Bettlistrasse 1,8600,2024-03-14T23:56,2024-03-15T00:00
54b28f07-8df9-44de-95e5-1d4c8860fbac,Sonnental,47.395367,8.603989,Zürichstrasse 94,8600,2024-03-14T23:56,2024-03-15T00:00
75f8c8e4-0784-4f4f-8824-40caf6d7aa1f,Bahnhof Balsberg,47.44173,8.56879,Kloten Balsberg,8302,2024-03-14T23:56,2024-03-15T00:00
0759c9a7-2e4a-414f-b9c6-a507724d6d6f,Boulevard Lilienthal,47.424156,8.562301,Boulevard Lilienthal 2,8152,2024-03-14T23:56,2024-03-15T00:00
31075c8e-698c-4dd8-872c-c48ee5ec2d33,Schöngrün-Vermont,46.94612,7.4758153,Weltistrasse 40,3006,2024-03-14T23:56,2024-03-15T00:00
bdc7db74-8a33-4b02-9825-85db8d29efc7,Sirius-Platz,47.418472,8.561746,Sirius-Platz,8152,2024-03-14T23:56,2024-03-15T00:00
2a33ccd1-6e0d-4e78-8963-063ef2cb19e3,Bahnhof Kloten,47.4488,8.583122,Bahnhofstrasse 10,8302,2024-03-14T23:56,2024-03-15T00:00
b08da837-3590-4042-ab95-4f6c9c0950fa,Stadtbachstrasse,46.9491,7.4332776,Pavillonweg 13,3012,2024-03-14T23:56,2024-03-15T00:00
0b2165bc-7531-46a9-93ef-76c4aa22895b,Zwicky-Areal,47.40462,8.60465,Seidenplatz 3,8304,2024-03-14T23:56,2024-03-15T00:00
fb851538-9e33-486e-bd1e-0fb34c3efef5,Schwimmbad Wallisellen,47.417667,8.593612,Alte Winterthurerstrasse 64,8304,2024-03-14T23:56,2024-03-15T00:00
d773694a-ff97-467b-9201-296f63f1aa36,Bahnhof Wallisellen,47.4121,8.592144,Signum-Platz,8304,2024-03-14T23:56,2024-03-15T00:00
1c5f1926-b1fa-4a2f-8fd0-27a0061db9d0,Auge,46.802937,7.167527,Place du Petit-Saint-Jean 13a,1700,2024-03-14T23:56,2024-03-15T00:00
c20ad3d8-5095-4135-93de-4120a7ae052a,Freilager,47.38159,8.49038,Rautistrasse 60,8048,2024-03-14T23:56,2024-03-15T00:00
ef8482b2-3e8c-4e4f-995c-3c9ebf61c2ed,Leutschenpark,47.416874,8.555639,Leutschenbachstrasse 50,8050,2024-03-14T23:56,2024-03-15T00:00
92f7ad7d-f4a3-4047-a3cd-183612a97d88,Kirche Bühl,47.367657,8.516257,Goldbrunnenstrasse 54,8055,2024-03-14T23:56,2024-03-15T00:00
d84ec244-dc49-4198-93f1-a85ab0c920af,Glattwiesen,47.4028,8.58131,Altwiesenstrasse 104,8051,2024-03-14T23:56,2024-03-15T00:00
168922be-916f-484f-ad91-bfa6ec0b2b7d,Berninaplatz,47.403824,8.546464,Berninastrasse 45,8057,2024-03-14T23:56,2024-03-15T00:00
e7a572a4-6c42-4c2b-a7ce-3bd3537d8889,Siège du CIO,46.517338,6.59775,Chemin du Camping 3,1007,2024-03-14T23:56,2024-03-15T00:00
db72c312-b6e3-49fd-81e0-84e765c01853,Cerisaie,46.52864,6.566695,Avenue du Tir Fédéral 88,1024,2024-03-14T23:56,2024-03-15T00:00
71b3fd06-134f-424a-a607-0b6aaa6b886c,Messe/Hallenstadion,47.410618,8.55189,Wallisellenstrasse 46,8050,2024-03-14T23:56,2024-03-15T00:00
c4f12110-e63b-45ab-9c9f-e48fdb4e3c01,Merzenacker,46.946854,7.4836545,Obere Zollgasse 94,3006,2024-03-14T23:56,2024-03-15T00:00
4b5f9623-a41c-4d31-8f18-f1e36ae94598,Weberstrasse,46.939873,7.425113,Weberstrasse 25,3007,2024-03-14T23:56,2024-03-15T00:00
5c63a9c8-cf24-4c5d-a1d5-697a51e201c3,Kirchbergerstrasse,46.938847,7.4210796,Kirchbergerstrasse 41,3008,2024-03-14T23:56,2024-03-15T00:00
129835eb-db1f-4fb7-8fba-9ce8f45ba447,Mendrisio Municipio,45.87125,8.986754,Via Municipio,6850,2024-03-14T23:56,2024-03-15T00:00
6bf49267-e34b-49c6-920b-e234ecdb7180,Mendrisio CPI,45.87216,8.983529,Via Franco Zorzi,6850,2024-03-14T23:56,2024-03-15T00:00
05993070-a0a1-4b98-a6f6-92abce3b6b93,Mendrisio Fox Town,45.8762,8.98128,Via Moree,6850,2024-03-14T23:56,2024-03-15T00:00
6b33fef4-39e9-4b2e-a3c9-904be2511d41,Incrocio via Torraccia - via Cereda,45.84025,8.997599,Via Torraccia 1,6883,2024-03-14T23:56,2024-03-15T00:00
8e62826d-bb4c-4869-a678-0fc58a2c2753,Mendrisio Mercato Coperto,45.86552,8.977682,Via Campo Sportivo,6850,2024-03-14T23:56,2024-03-15T00:00
a3ec3ba5-cd38-49f3-811a-f2db4d0be1d9,Pedrinate,45.82607,9.013037,Strade Regina 5,6832,2024-03-14T23:56,2024-03-15T00:00
5cc75d2e-7bae-4e78-b8a7-9d2635e27159,Seseglio,45.83032,8.996931,Via Campagna 4,6832,2024-03-14T23:56,2024-03-15T00:00
bb2ea6bd-f478-4a92-b1b8-fd19b2ae6755,ColdreBike,45.856503,8.988615,Via San Gottardo,6877,2024-03-14T23:56,2024-03-15T00:00
68aaeea7-9a35-4ead-9930-a420c1e7911a,Chiasso Stazione FFS,45.83239,9.033756,Piazza Elvezia,6830,2024-03-14T23:56,2024-03-15T00:00
ee102374-d665-4b16-9aa2-8ef9b9cae02a,Chiasso Municipio,45.835102,9.027883,Piazza Col. C. Bernasconi 1,6830,2024-03-14T23:56,2024-03-15T00:00
1c41c248-a7d1-475c-aa6c-62b6fb93c842,Stabio Stazione FFS,45.849792,8.944964,Via Cantonale 11,6855,2024-03-14T23:56,2024-03-15T00:00
508c6028-882d-4402-a338-fbf74685b186,Stabio via Mulino,45.84818,8.936794,Prati del Trevano,6855,2024-03-14T23:56,2024-03-15T00:00
ba6b9157-34a0-4a99-b7a3-0d9fe557d324,Gentilino,45.99107,8.936421,Via Nocc,6925,2024-03-14T23:56,2024-03-15T00:00
fc369123-8ae8-4903-8c65-50879d06e22b,Rathausgasse,46.94847,7.450529,Rathausgasse 31,3000,2024-03-14T23:56,2024-03-15T00:00
b5f071bf-7eda-4a69-b7e7-3380e787a7d3,Stabio Via Segeno,45.858612,8.940146,Via Segeno,6855,2024-03-14T23:56,2024-03-15T00:00
794676bd-70f0-432c-af9f-896bdc646999,Elfenauweg,46.93946,7.46973,Elfenauweg 6a,3006,2024-03-14T23:56,2024-03-15T00:00
32148f3b-8163-4fad-bcb5-3738df0ec0b3,Luisenstrasse,46.942352,7.452777,Luisenstrasse 18,3005,2024-03-14T23:56,2024-03-15T00:00
5cda7e84-52e0-4806-9407-cb6eeb8fe756,Stöckacker Migros,46.944244,7.399437,Bethlehemstrasse 106,3018,2024-03-14T23:56,2024-03-15T00:00
56d620b9-fadb-42f2-83a6-1c7e5115ba33,Forsthaus KVA / TBA,46.951736,7.416496,Murtenstrasse 98,3008,2024-03-14T23:56,2024-03-15T00:00
935c6cb6-61fb-4132-a7d4-d20b3ae50edd,Breitenrainstrasse,46.957195,7.450895,Optingenstrasse 53,3013,2024-03-14T23:56,2024-03-15T00:00
ab1c0c7e-c52c-4fbe-9732-bbaf322fbd03,Salem-Spital,46.9527,7.454585,Schänzlistrasse 33,3013,2024-03-14T23:56,2024-03-15T00:00
c0c56be7-7617-4e7f-9738-d4885f760e1e,Quartiergasse,46.958015,7.444949,Quartiergasse 31,3013,2024-03-14T23:56,2024-03-15T00:00
f68904bd-c2d8-4319-9425-20fe79174be8,Ostermundigerstrasse,46.95251,7.467399,Ostermundigenstrasse 36,3006,2024-03-14T23:56,2024-03-15T00:00
c15ab542-3d6c-4a33-9f0d-635281e758cd,Mühlenplatz,46.94684,7.4556,Schifflaube 1,3011,2024-03-14T23:56,2024-03-15T00:00
e352fdac-67a1-4826-ad69-ba461ef1d30a,Egelsee,46.943535,7.463293,Ensingerstrasse 3,3006,2024-03-14T23:56,2024-03-15T00:00
5b14e1e5-b1a8-4e5c-a06e-291e670651d7,Schaffhauserplatz,47.39129,8.537546,Rotbuchstrasse 15,8006,2024-03-14T23:56,2024-03-15T00:00
677cb2f9-fc4c-4e2d-9759-b1aeca78415b,Bezirksgebäude,47.37424,8.525602,Badenerstrasse 90,8004,2024-03-14T23:56,2024-03-15T00:00
76eb1dfe-934f-4636-9971-b2dfa54e24f2,Center Eleven,47.413734,8.541541,Therese-Giehse-Strasse 11,8050,2024-03-14T23:56,2024-03-15T00:00
308dcd3b-90e7-459e-af83-831f5a523266,Goldbrunnenplatz,47.37024,8.514841,Schrennengasse 37,8003,2024-03-14T23:56,2024-03-15T00:00
6e3cbc63-e851-4ae4-b920-cbbbf646c3ed,Helvetiaplatz,47.37647,8.526609,Molkenstrasse 15,8004,2024-03-14T23:56,2024-03-15T00:00
98f1ef76-7aab-4a19-ab1e-b86bd7894216,GZ Wollishofen,47.3453,8.53577,Bachstrasse 15,8038,2024-03-14T23:56,2024-03-15T00:00
5e8005b6-ec6a-422f-93d3-0d23ed861ce1,Mythenschloss,47.360004,8.534227,Alfred Escher-Strasse 76,8002,2024-03-14T23:56,2024-03-15T00:00
59f69571-f0de-4cc7-b09e-89b3d7969436,Am Wasser,47.39617,8.50373,Hardeggstrasse 6,8049,2024-03-14T23:56,2024-03-15T00:00
a27654b9-be8e-4331-ad0d-86f3f57ed492,Dennlerstrasse,47.381447,8.497982,Dennlerstrasse 23,8047,2024-03-14T23:56,2024-03-15T00:00
63ce5f2c-9be1-4f30-8e68-6a44194c85fe,Jugendherberge,47.347702,8.528049,Mutschellenstrasse 114,8038,2024-03-14T23:56,2024-03-15T00:00
ae7e20c2-00c8-4815-8d71-3187ad181555,Freibad Allenmoos,47.40575,8.539016,Ringstrasse 82,8057,2024-03-14T23:56,2024-03-15T00:00
db513431-d181-4212-93c1-2a3ff5d987ef,Flughafen Kloten,47.45041,8.563071,Veloabstellplatz Parking 2,8302,2024-03-14T23:56,2024-03-15T00:00
881bfdca-11c4-4a73-a11e-c9fed378e09a,Loryplatz,46.94467,7.422308,Könizstrasse 6,3008,2024-03-14T23:56,2024-03-15T00:00
2702c7d6-2ebd-42a0-90b1-d61184793c53,Vaudoise Assurances,46.514553,6.619263,Avenue de Cour 43,1007,2024-03-14T23:56,2024-03-15T00:00
4db08eaf-78bf-4760-ae68-99215abc166c,Petit-Moncor,46.800446,7.122294,Route de Petit-Moncor,1752,2024-03-14T23:56,2024-03-15T00:00
f087d0f3-b13f-41c8-bfb6-4c9f27b006ad,Lanchetta,46.006077,8.966775,via delle Scuole,6900,2024-03-14T23:56,2024-03-15T00:00
55d8d8a1-5f45-4662-8773-e9d9c533e6f5,Via Vignola,46.016525,8.955876,Via Trevano,6900,2024-03-14T23:56,2024-03-15T00:00
5a46d236-74ae-4d29-afb1-c76d7d4217f8,Via Loco,46.0202,8.97169,Via Loco,6900,2024-03-14T23:56,2024-03-15T00:00
6957b9f5-6190-4e54-aa86-23317f89c841,Parco Ciani,46.005806,8.957374,via Lucchini,6900,2024-03-14T23:56,2024-03-15T00:00
06c82b8a-273a-4454-829c-b0a0eb611b88,Davesco,46.037003,8.979558,Via Vecchio Tram,6964,2024-03-14T23:56,2024-03-15T00:00
4fb93f4d-0359-4529-a6c9-fe21307244ea,IBSA,45.97765,8.926757,Via del Piano 7,6926,2024-03-14T23:56,2024-03-15T00:00
bf852912-3479-445e-9807-4a3051169faf,Brünnenstrasse,46.942787,7.387076,Brünnenstrasse 80,3018,2024-03-14T23:56,2024-03-15T00:00
df44c01c-e946-473a-8d3a-ac55bf1782b8,Tiefenau Bahnhof,46.97293,7.450856,Tiefenaustrasse 109,3004,2024-03-14T23:56,2024-03-15T00:00
f740f8f9-85cf-4be2-8a16-0bba162affd1,Insel West,46.946545,7.420781,Friedbühlstrasse 52,3008,2024-03-14T23:56,2024-03-15T00:00
52a8966e-af30-4e59-b30f-69287360b16e,Jubiläumsplatz,46.94018,7.453044,Jubiläumsplatz 2,3005,2024-03-14T23:56,2024-03-15T00:00
d2a914de-62cb-4b32-9f0e-239bed1f160e,Schwarztorstrasse,46.94461,7.429074,Schwarztorstrasse 71,3007,2024-03-14T23:56,2024-03-15T00:00
5fabd953-2429-480d-95a9-c28238efa8d3,Museen Bernastrasse,46.941383,7.448788,Bernastrasse 23,3005,2024-03-14T23:56,2024-03-15T00:00
b3ffb022-457c-4866-ab18-eedd1b91a01c,Insel Haupteingang,46.947556,7.426695,Freiburgstrasse 15,3008,2024-03-14T23:56,2024-03-15T00:00
b27d1bb6-df5e-45b4-b0ab-05202572a700,Wankdorf Sporthalle,46.96448,7.466948,Papiermühlestrasse 91,3014,2024-03-14T23:56,2024-03-15T00:00
2bd6b7a9-cbbf-4445-a535-32704940e596,Sicpa,46.531254,6.601886,Route des Flumeaux 40,1008,2024-03-14T23:56,2024-03-15T00:00
5e1d65e3-9584-4330-a663-79c56c215619,Riva San Vitale - Posteggio Piazzale a Lago,45.90588,8.972694,Via al Lido,6826,2024-03-14T23:56,2024-03-15T00:00
d2439de4-0b64-44c5-9504-eb1a69574c08,"Eysins, Vieux-Collège",46.38065,6.20499,Rue du Vieux-Collège 3-1,1262,2024-03-14T23:56,2024-03-15T00:00
c422540c-656b-45dc-900b-6be35cbdfa02,"Founex, village",46.33296,6.19293,Grand-Rue 29,1297,2024-03-14T23:56,2024-03-15T00:00
cfb62999-088a-488c-b3b6-f8ea784afb38,"Rolle, Château",46.45924,6.34011,Place des Tilleuls,1180,2024-03-14T23:56,2024-03-15T00:00
05ded8cf-026e-4e9d-880d-a57bb179f79e,"Rolle, Débarcadère",46.45543,6.336791,Rue du Port,1180,2024-03-14T23:56,2024-03-15T00:00
75a54748-ccf5-4c51-bfcc-ff46f54c4cc6,Zollikofen Bahnhof,47.000175,7.461966,Bernstrasse 189,3052,2024-03-14T23:56,2024-03-15T00:00
4bed206c-e189-4326-b701-aa1095a8b71d,Glattzentrum,47.409405,8.596064,Neue Winterthurerstrasse 82,8304,2024-03-14T23:56,2024-03-15T00:00
46e8bbf1-913b-479f-9ac1-9467ae9e2bac,"Rolle, by A-One",46.46063,6.32262,Z. A. La Pièce 4,1180,2024-03-14T23:56,2024-03-15T00:00
6ed97abe-2ced-491c-9f09-17ca2ee8fbde,"Coppet, Port",46.31526,6.19271,Place des Ormes,1296,2024-03-14T23:56,2024-03-15T00:00
a891fa12-2819-46da-8bea-e5eb7aaad59d,"Mies, Gare",46.29934,6.16927,Route de la gare,1295,2024-03-14T23:56,2024-03-15T00:00
c9107d4f-a9f1-41e7-82d5-c188a796acee,"Gland, La Dôle",46.42121,6.26294,Chemin de la Dôle 15-11,1196,2024-03-14T23:56,2024-03-15T00:00
06469d7a-be24-4447-9d1d-4ea5f9ff89e1,"Gland, Grand'Rue",46.42391,6.26546,Grand-Rue 38,1196,2024-03-14T23:56,2024-03-15T00:00
cf6916b2-cfc5-4574-9787-e2321619f4db,"Gland, Montoly",46.42329,6.27557,Chemin de Montoly 1,1196,2024-03-14T23:56,2024-03-15T00:00
0cc7e662-c361-435c-9565-0ef31ca6a9e1,"Nyon, Gare Sud",46.38362,6.23574,Rue de la gare 38,1260,2024-03-14T23:56,2024-03-15T00:00
ca28449f-c497-4e1e-bde8-a16e28661af7,"Nyon, La Plage",46.37679,6.23515,Route de Genève 12,1260,2024-03-14T23:56,2024-03-15T00:00
51c713da-279d-44b2-a30e-7375880804ea,"Nyon, Hostel",46.39236,6.23137,Chemin des Plantaz 27,1260,2024-03-14T23:56,2024-03-15T00:00
3f78f1a7-bd31-4d3c-b827-e000e32abee0,"Nyon, Petit Perdtemps",46.38356,6.23973,Petit-Perdtemps,1260,2024-03-14T23:56,2024-03-15T00:00
50e91184-af3b-4630-ac07-ac9c978f7f22,ETH/Zoologisches Museum,47.375523,8.547696,Karl-Schmid-Strasse 1,8006,2024-03-14T23:56,2024-03-15T00:00
b1a6b151-0b8b-4753-8e6f-ef2a46cf3112,ETH Zentrum Leonhardstrasse,47.377777,8.546183,Leonhardstrasse 25a,8001,2024-03-14T23:56,2024-03-15T00:00
873b4645-d5a9-495e-aefa-a6e6b58756c1,Wylergut,46.964783,7.448404,Dändlikerweg 48,3013,2024-03-14T23:56,2024-03-15T00:00
e19f8c45-1f7a-4018-aa92-cb5970ccb1ad,Bundesamt für Energie,46.97596,7.472646,Mühlestrasse 4,3063,2024-03-14T23:56,2024-03-15T00:00
a67682bd-e9b2-4537-be8e-6b6214defbe5,Barbengo,45.958424,8.917052,Via Soreso 6,6917,2024-03-14T23:56,2024-03-15T00:00
cd739f58-2cd9-41db-a83d-8ebf237f15ff,Piscina Valgersa,46.01607,8.941042,Via Val Gersa,6942,2024-03-14T23:56,2024-03-15T00:00
f867ed08-e39e-4569-94e3-72c7bc2c234f,Centro Lugano Sud,45.97337,8.927351,Via Cantonale,6916,2024-03-14T23:56,2024-03-15T00:00
3835c04d-8058-46a8-b8d5-27812a938e41,Comano Centro Prospò,46.03702,8.954823,Parcheggio Chiesa Comano,6949,2024-03-14T23:56,2024-03-15T00:00
e5c4e14d-8007-4b77-aeb0-f2dd120823a9,Oassis,46.550957,6.5730667,Chemin des Lentillières 15,1023,2024-03-14T23:56,2024-03-15T00:00
515960a0-1b85-46d1-9755-952448f82038,via Maraini,45.999092,8.945139,via Clemente Maraini 12,6900,2024-03-14T23:56,2024-03-15T00:00
ec47af25-0d6d-4e79-ad02-0543f1ca7fd5,Besso,46.006275,8.942729,via Besso 23,6900,2024-03-14T23:56,2024-03-15T00:00
81ee8e4d-a535-4bbb-9c1b-903cc274ee30,Centro Giovanile,46.009396,8.931591,Via Dott. Giov. Polar. 34,6932,2024-03-14T23:56,2024-03-15T00:00
c203cd33-01e0-4270-902c-70549519e97d,bluefactory,46.79816,7.147493,Passage du Cardinal,1700,2024-03-14T23:56,2024-03-15T00:00
f5ac7798-6e48-4dc4-a2c7-2ba5409d6027,Marly Innovation Center,46.77787,7.15074,Route Ancienne Papeterie 550,1723,2024-03-14T23:56,2024-03-15T00:00
0b233e56-2aa0-458c-833a-14f62913e829,Pont de Zähringen,46.805412,7.165191,Route de Zähringen 2,1700,2024-03-14T23:56,2024-03-15T00:00
4aa167ee-28af-4134-9b61-5a0e06fe57b4,Avenue Beauregard,46.802116,7.146355,Avenue de Beauregard 11,1700,2024-03-14T23:56,2024-03-15T00:00
e362f221-f90f-4167-8965-81bd7597c3f1,Uni Miséricorde,46.806877,7.15297,Avenue de l'Europe 20,1700,2024-03-14T23:56,2024-03-15T00:00
5f1dd67d-c868-4290-a7ac-0965660bdaed,Route Albert-Gockel,46.79427,7.155003,Route Albert-Gockel,1700,2024-03-14T23:56,2024-03-15T00:00
bd5fa237-fa3d-4a7d-9de6-27c1a5232a98,Seebach ZüriMobil Station,47.421913,8.549832,Schaffhauserstrasse 509,8052,2024-03-14T23:56,2024-03-15T00:00
a9625d3e-3979-46dd-a5f6-50a2552c37a2,San Siro,46.01576,8.971604,Via al Campanile 1,6962,2024-03-14T23:56,2024-03-15T00:00
062d2521-85f3-4f98-b269-029e1e105b86,Faucigny,46.79587,7.156473,Rue P.-A.-de- Faucigny 5,1700,2024-03-14T23:56,2024-03-15T00:00
23c06f59-d3b7-44de-954b-07df42f1c3d9,Les Fluides,46.81288,7.11461,Route des Fluides 1,1762,2024-03-14T23:56,2024-03-15T00:00
0969d2ea-b3f5-4187-be9b-bf6e4b5823a6,Gare de Givisiez Sud,46.816013,7.12996,Route des Taconnets 3,1762,2024-03-14T23:56,2024-03-15T00:00
d3575421-b480-46c0-8d98-b8ddbbbe21e6,Arsenaux,46.797047,7.150607,Route des Arsenaux 6a,1700,2024-03-14T23:56,2024-03-15T00:00
dcd92303-3c05-4f0a-9878-da82ef3b2b93,Marly-Cité,46.776962,7.16038,Route de Fribourg,1723,2024-03-14T23:56,2024-03-15T00:00
fd287236-65cb-4f0d-b3cf-ca65021a1f85,Marly Gérine,46.77173,7.162033,Route de la Gruyère,1723,2024-03-14T23:56,2024-03-15T00:00
203fb81c-fc30-438e-8a0a-12bcb2661b9d,Bois de Moncor,46.79804,7.119618,Route de Petit-Moncor 1A,1752,2024-03-14T23:56,2024-03-15T00:00
c2611e47-d15b-4007-9b3b-2867410ac8e5,Vignettaz - Daler,46.80007,7.140663,Route de Villars 22,1700,2024-03-14T23:56,2024-03-15T00:00
3d9562f4-1cb3-4561-9efd-baef2c137ac3,Open 07:00 - 18:00 In der Velostation Schanzenbrücke,46.949234,7.436822,Velostation Parkterrasse,3012,2024-03-14T23:56,2024-03-15T00:00
8439b8ee-a6e0-41b9-a732-8f153e356699,Mendrisio Museo,45.872543,8.987225,Via Vincenzo Vela,6850,2024-03-14T23:56,2024-03-15T00:00
7da046b0-0d91-4703-8e15-11b7e9fcf024,fuori servizio per lavori di costruzione : Mendrisio Piscine,45.88355,8.980175,Via S. Martino,6850,2024-03-14T23:56,2024-03-15T00:00
1df2ca01-8200-4834-9fd0-d6378d2f22bd,Mendrisio Stazione FFS,45.868397,8.978069,Via Stefano Franscini,6850,2024-03-14T23:56,2024-03-15T00:00
ef3f9ee8-17a5-4030-b91d-8ed7de3aba26,Mendrisio Centro,45.87023,8.987409,Via Luigi Lavizzari,6850,2024-03-14T23:56,2024-03-15T00:00
4c3d6f60-2cd5-4939-825f-0f00e8cdfe00,Mendrisio La Filanda,45.86959,8.989624,Largo Mario Soldini,6859,2024-03-14T23:56,2024-03-15T00:00
8847f550-a6ab-496d-97cb-a2d60522b5df,Arzo Scuole,45.874836,8.937745,Via Onorio Longhi 2,6864,2024-03-14T23:56,2024-03-15T00:00
adc9ef51-7b22-44b8-b9de-06487431008f,Salorino Nucleo,45.871998,8.994334,Via S. Rocco 16,6872,2024-03-14T23:56,2024-03-15T00:00
b521e47d-fddb-4448-8f71-bcf9ad294322,Genestrerio Nucleo,45.85481,8.960802,Piazza Baraini,6851,2024-03-14T23:56,2024-03-15T00:00
8376691a-4878-4c9f-ae56-ec6e5157c932,Besazio Nucleo,45.872646,8.953349,Via Besazio,6863,2024-03-14T23:56,2024-03-15T00:00
34a46786-9160-4656-aeb7-ad497306f160,Mendrisio Comparto Scuole,45.86245,8.980687,Via Pier Francesco Mola,6850,2024-03-14T23:56,2024-03-15T00:00
fe8a5030-a76f-4742-afb3-d4dea3967f3c,Mendrisio Ospedale,45.86688,8.983606,Via Alfonso Turconi 25,6850,2024-03-14T23:56,2024-03-15T00:00
cd9b9bb5-df63-42b9-b68d-0898c0ff5104,Rancate Nucleo,45.87154,8.968208,Piazza S. Stefano,6862,2024-03-14T23:56,2024-03-15T00:00
0efe0b34-9c9c-47ea-a969-d94f3818a405,Ligornetto Nucleo,45.86145,8.954693,Via Eugenio Bernasconi 22,6853,2024-03-14T23:56,2024-03-15T00:00
6724784d-a2df-4401-84af-1d5754bc7dc7,Morbio Serfontana,45.845722,9.014909,Viale Serfontana 20,6834,2024-03-14T23:56,2024-03-15T00:00
1054f681-cd26-4ffe-a433-244abdc4dbf4,Castel S. Pietro alle Zocche,45.855003,9.002221,Via alle Zocche 7-3,6874,2024-03-14T23:56,2024-03-15T00:00
75079a42-c9a3-4865-9882-b5c4df5e1d8b,HAFL Zollikofen,46.991283,7.4674253,Länggasse 85,3052,2024-03-14T23:56,2024-03-15T00:00
365c2294-8ecd-4a91-b202-4262765443c6,Landoltstrasse,46.93718,7.439398,Bürenstrasse 1,3007,2024-03-14T23:56,2024-03-15T00:00
a87be52c-547b-4ed0-ad16-1ef242a473f0,Mendrisio Cantine,45.87595,8.987139,Viale alle Cantine,6850,2024-03-14T23:56,2024-03-15T00:00
1f9cae80-7b29-4a97-92b3-a830e780fba7,Balerna Stazione FFS,45.847004,9.005262,Via Stazione,6828,2024-03-14T23:56,2024-03-15T00:00
962676bc-c388-4ba5-852e-4d7599beb354,Balerna Ossario,45.84974,9.008044,Via Carlo Silva 2,6828,2024-03-14T23:56,2024-03-15T00:00
ee9460db-fc03-4479-8ff1-605f9e2ba3b6,Scuole Via Franscini,45.8446,9.030907,Via Stefano Franscini,6833,2024-03-14T23:56,2024-03-15T00:00
da0eb00f-8cdd-480a-9c64-157db7449a75,Stabio - Gaggiolo,45.841892,8.916675,Via Gaggiolo,6855,2024-03-14T23:56,2024-03-15T00:00
4825c126-2c84-42b1-aef5-3cd99fa9f5c1,Piazzale Filanda,45.922417,8.98599,Via Capeleta,6818,2024-03-14T23:56,2024-03-15T00:00
ded3f1f1-d033-4dd7-b8b5-16eb5ca497cd,Maroggia Stazione,45.932796,8.973029,Viale Stazione,6817,2024-03-14T23:56,2024-03-15T00:00
1155269d-4e94-4ac6-8273-e4bea36bf2ba,Ospedale Civico,46.01839,8.952667,Via Tesserete 46,6900,2024-03-14T23:56,2024-03-15T00:00
ada9846e-93e4-4975-aaf2-62a146828097,Bissone,45.95289,8.965247,Via Collina,6816,2024-03-14T23:56,2024-03-15T00:00
478cfd06-f174-490f-8c1c-d2207e5f5228,Brusino Arsizio – Debarcadero,45.92991,8.938161,Piazza Don F. Andreoletti 1,6827,2024-03-14T23:56,2024-03-15T00:00
2f4dd48d-8d2e-4edc-ae94-c194391cb976,Porza Sant'Elena,46.027897,8.954881,Via Cantonale,6948,2024-03-14T23:56,2024-03-15T00:00
972b1ab1-4697-4989-94ef-feb336df195b,"Coppet, Rojalets",46.322124,6.1878266,Route de Founex,1296,2024-03-14T23:56,2024-03-15T00:00
13faae51-0854-4a71-a803-16c3703d8f16,"Mies, Plage",46.30404,6.179519,Route Suisse,1295,2024-03-14T23:56,2024-03-15T00:00
455b5ce5-d721-427f-af2a-2ff7f7afa23d,"Coppet, Gare",46.31853,6.187803,Route de Founex,1296,2024-03-14T23:56,2024-03-15T00:00
f7e2a739-b1b9-4247-90d8-e4d02d3e2e72,"Nyon, Stade de Colovray",46.370777,6.228414,Route de Genève 37,1260,2024-03-14T23:56,2024-03-15T00:00
7f8cef3f-3d51-444d-a84e-dbe181032580,Croisettes-Biopôle,46.543262,6.6615458,Route de la Corniche 2,1066,2024-03-14T23:56,2024-03-15T00:00
bc980ebc-b9de-4e0c-847b-8ab993ee8223,"Epalinges, Croix-Blanche",46.54787,6.6716323,Rte de la Croix-Blanche 25,1066,2024-03-14T23:56,2024-03-15T00:00
fa70080b-3af0-427f-84e7-c4f969df3b17,Stauffacherstrasse,46.96624,7.4558244,Stauffacherstrasse 65,3014,2024-03-14T23:56,2024-03-15T00:00
4c021bce-9c6e-4cb8-af58-e8ac97cfa6cd,Le Domaine (Swiss Lodge),46.79633,7.1318164,Chem. des Eaux-Vives 17,1752,2024-03-14T23:56,2024-03-15T00:00
9c362372-a80a-4676-9dc1-75c6ee758cb4,Radiostudio,47.40275,8.5355,Wehntalerstrasse 98,8057,2024-03-14T23:56,2024-03-15T00:00
2bac6331-cd53-4198-8568-d0669d98efde,Schmiede Wiedikon,47.370037,8.518185,Brinerstrasse 2,8003,2024-03-14T23:56,2024-03-15T00:00
00eba987-c2fa-42e7-8e73-20f192700df1,Vallaire,46.5165,6.5504084,Champs-Courbes,1024,2024-03-14T23:56,2024-03-15T00:00
652e02cf-1e4e-4d54-8e63-a182c123f29d,"Mont-sur-Rolle, Eglise",46.470818,6.336435,Rue de Mont-le-Grand 1,1185,2024-03-14T23:56,2024-03-15T00:00
1294c3f6-91b5-4cc4-a580-a2d291492b76,"Chavannes-de-Bogis, Village",46.345478,6.162667,Route de Bogis-Bossey 41,1279,2024-03-14T23:56,2024-03-15T00:00
d27ecf75-b550-4a66-93e0-bc441a409f61,Stapferstube,47.382576,8.546903,Stapferstrasse 7,8006,2024-03-14T23:56,2024-03-15T00:00
9a550e79-a4cd-45cc-88d5-f843bd7df767,Quartiere 9,46.020824,8.964896,Via Industria,6963,2024-03-14T23:56,2024-03-15T00:00
4af493cc-48cd-402b-9472-c2a12172fdb5,"Rolle, Martinet",46.459496,6.333472,Route des Quarte-Communes 7,1180,2024-03-14T23:56,2024-03-15T00:00
4bb33d18-b7ba-4670-970c-2f8f0bb729a5,Chantemerle,46.81984,7.1397367,Route de Chantemerle 60,1763,2024-03-14T23:56,2024-03-15T00:00
7108fd6b-0920-47d7-9c44-c3cb1ee35277,Bel-Air,46.776882,7.139565,Route de Bel-Air 17,1723,2024-03-14T23:56,2024-03-15T00:00
f488f9e9-902f-4979-bbf7-6f7c4541dd82,Chiasso Soldini,45.83472,9.018201,Via Soldini parcheggio Crocione,6830,2024-03-14T23:56,2024-03-15T00:00
3bdd49d4-3441-47ac-96ce-bdad213b84cf,Eawag,47.403145,8.609221,Ueberlandstrasse 137,8600,2024-03-14T23:56,2024-03-15T00:00
49b221fd-cf4d-4e0c-87a7-41e0710a342e,WINTERPAUSE: Station Gurten Kulm ist nicht in Betrieb,46.91916,7.4383864,Gurten - Park im Grünen,3084,2024-03-14T23:56,2024-03-15T00:00
65132947-341f-4b82-9fcd-2b8acb519c29,"Marly, chemin du Pont",46.783154,7.155408,Chemin du Pont,1723,2024-03-14T23:56,2024-03-15T00:00
d8e2fcc0-55cc-44d2-b9dd-4d8640278ce0,Novazzano Centro Paese,45.841267,8.98136,Via alla Scuola,6883,2024-03-14T23:56,2024-03-15T00:00
d8f8c19b-77a8-4f18-95bc-5cc48ed7e48d,"Founex, Ecolint",46.339615,6.171961,Chemin de la Ferme 2,1297,2024-03-14T23:56,2024-03-15T00:00
5613b3f9-64c7-4adc-b3f8-ec3cadf4a330,"Belfaux, Champ Bonjart",46.819363,7.1024685,Champ Bonjart 1,1782,2024-03-14T23:56,2024-03-15T00:00
cc6abf9b-f5f2-48d5-9fcb-2beb98c3b8ec,P+R La Chassotte,46.81078,7.139183,Route du Jura,1700,2024-03-14T23:56,2024-03-15T00:00
45ba6b1c-ab8e-4d56-859e-06bfc5b6886e,Gare de Belfaux-Village,46.821426,7.108386,Place de la Gare GFM,1782,2024-03-14T23:56,2024-03-15T00:00
4e4a8843-3c86-44f9-918e-a1775fd68860,Route des Noisetiers,46.808,7.14335,Route des Noisetiers,1700,2024-03-14T23:56,2024-03-15T00:00
a073be48-7e06-4db8-9dc1-810e517bde00,Foce,46.00395,8.961542,Via Foce,6900,2024-03-14T23:56,2024-03-15T00:00
eb19fb0e-63e5-44a7-8c76-9eaef582d1a9,CSIA,46.018784,8.962014,Via Brentani,6900,2024-03-14T23:56,2024-03-15T00:00
aa7d0bec-cf53-4743-834e-9f67b9fc04a8,Ecocentro Pregassona,46.029053,8.969857,Via Ruggì 46,6963,2024-03-14T23:56,2024-03-15T00:00
171f95a5-df61-4d95-8543-dfc3e93ab8ff,Casserina,45.994724,8.943257,Via Clemente Maraini 39,6900,2024-03-14T23:56,2024-03-15T00:00
0e5e1e7b-4738-452b-bd28-99ed11000255,Stadthaus Opfikon,47.43281,8.566564,Oberhauserstrasse 25,8152,2024-03-14T23:56,2024-03-15T00:00
8abf3672-62e3-43e7-a4b6-500489c8727c,"Vacallo, Piazza Municipio",45.84743,9.034208,Via Giacomo Puccini,6838,2024-03-14T23:56,2024-03-15T00:00
06c1a34a-abd7-4e7c-b460-d21c5ff6b2f5,Café de Chavannes,46.527515,6.572738,Route de la Maladière 40,1022,2024-03-14T23:56,2024-03-15T00:00
44a25284-998a-4f2d-a584-4fe44e8c94d7,Chocolaterie,46.534393,6.5780125,Avenue de la gare 22,1022,2024-03-14T23:56,2024-03-15T00:00
ccd580ad-8a40-44b7-9d49-6d7caad76f9d,SEVELIN.CH,46.52285,6.6166916,Avenue de Sévelin,1004,2024-03-14T23:56,2024-03-15T00:00
6673a5a5-8626-42f5-b152-86a92146a29d,Saint-François,46.51967,6.6325564,Place Saint-François,1003,2024-03-14T23:56,2024-03-15T00:00
64c82538-4ca4-4c7b-a615-01ea654d9d84,Ours,46.52113,6.6403637,Passage Perdonnet 1,1005,2024-03-14T23:56,2024-03-15T00:00
cc93e322-2ae2-4d4e-9f3b-b42ad9707802,Chailly,46.526894,6.6517253,Av. de Chailly 1,1012,2024-03-14T23:56,2024-03-15T00:00
e4edc558-f3e4-4f70-869d-2c0a426d065e,Stauffacherplatz,46.960117,7.4543347,Scheibenstrasse 13,3014,2024-03-14T23:56,2024-03-15T00:00
1e6b5496-1920-4643-9d33-cca2832cc2c9,Marteray,46.791508,7.138977,Route de Marteray 21,1752,2024-03-14T23:56,2024-03-15T00:00
554280dd-698f-4ef2-8bb6-53996f91d65a,Martinets,46.790943,7.1273656,Route des Martinets,1752,2024-03-14T23:56,2024-03-15T00:00
0926163d-d5b4-4151-8a1b-660c56f43f4c,Schönberg Chaley,46.806274,7.175203,Route Joseph-Chaley,1700,2024-03-14T23:56,2024-03-15T00:00
c97a924b-80de-4c25-9ee4-7c355b15dd27,Forum Fribourg,46.82482,7.1517434,Rte du Lac,1763,2024-03-14T23:56,2024-03-15T00:00
ecbd1ce7-a4c9-49b9-a286-692dac255dde,Place des Osses,46.81795,7.126885,Route du Tir-Fédéral,1762,2024-03-14T23:56,2024-03-15T00:00
2e79ea4b-270c-4919-8b94-2db375b7c575,Forch,47.325157,8.647915,Kaltensteinstrasse 32,8127,2024-03-14T23:56,2024-03-15T00:00
dd8e2b0d-c447-4557-94e6-58b4723e05b6,"Corminboeuf, Route du Centre",46.807785,7.102946,Route du Centre 13,1720,2024-03-14T23:56,2024-03-15T00:00
43334c66-0e89-4ec2-8386-e5163d4bc346,Place d'Affry,46.812458,7.1277676,Place d'Affry,1762,2024-03-14T23:56,2024-03-15T00:00
12cb92f1-9c9f-49c9-a59f-489a934bc38d,Montanstahl Via Gerette,45.844532,8.926253,Via Gerette,6855,2024-03-14T23:56,2024-03-15T00:00
3bfc343a-7b64-4c3a-b4ea-6a88ad2ebf88,Eglantine,46.511967,6.484985,Promenade de l'Eglantine 1,1110,2024-03-14T23:56,2024-03-15T00:00
14886244-514e-45aa-9337-a230fd470490,Baumettes,46.544315,6.586898,Av. des Baumettes 9,1020,2024-03-14T23:56,2024-03-15T00:00
2eec1d5f-2573-485c-9234-a9ab2c99b82e,CHUV,46.526546,6.641112,Rue du Bugnon,1011,2024-03-14T23:56,2024-03-15T00:00
3955c99a-ef5c-43cd-bfaa-8e48de958ce6,CHUV Cery,46.547024,6.607628,Route de Cery 60,1008,2024-03-14T23:56,2024-03-15T00:00
e9da6476-303a-43d8-b6c8-83790cdd492f,Cèdres,46.53096,6.5709543,Allée des Cèdres,1022,2024-03-14T23:56,2024-03-15T00:00
c4b13c56-a216-4587-959f-08a32bbbb01a,"Gland, Place Riant-Coteau",46.419163,6.282356,Rue du Riant-Coteau,1196,2024-03-14T23:56,2024-03-15T00:00
27048532-67cc-4ae5-9b67-526d7489a79e,"Gland, Le Midi",46.417503,6.271244,Rue du Midi,1196,2024-03-14T23:56,2024-03-15T00:00
834dc4fe-98d3-4711-a43f-1f69a7313789,Route des Cliniques,46.793648,7.150041,Route des Cliniques,1700,2024-03-14T23:56,2024-03-15T00:00
9add64fb-a350-453d-b991-bbb13aae13ee,Ecoquartier Marly,46.775787,7.1565814,Route du Moulin,1723,2024-03-14T23:56,2024-03-15T00:00
bbd1353f-a476-4f4b-aaee-8e6a5a8610a2,Kornhausplatz,46.94877,7.447569,Kornhausplatz 18,3011,2024-03-14T23:56,2024-03-15T00:00
72b8485a-77e2-4e3c-ba8d-3dbc4eec5333,Zollstrasse,47.38115,8.532405,Neugasse 6,8005,2024-03-14T23:56,2024-03-15T00:00
47ed1811-b76d-45ad-af38-a77ce2aaae04,UPD Restaurant,46.966293,7.483183,UPD Bern,3000,2024-03-14T23:56,2024-03-15T00:00
b060a8c4-e313-4f4b-821b-34bcae647a9d,UPD,46.96526,7.4810224,Bolligenstrasse 111,3000,2024-03-14T23:56,2024-03-15T00:00
ab26130c-dab2-42c7-8fc8-e98670eb87e5,UPD Neuhaus,46.969498,7.4858046,u. Zollgasse 99,3063,2024-03-14T23:56,2024-03-15T00:00
4ae1da25-16f0-42c6-8045-9320cca1cc31,Worblaufen RBS Bahnhof,46.979404,7.45719,Tiefenaustrasse 2,3048,2024-03-14T23:56,2024-03-15T00:00
6e6abbe2-8752-4724-a152-204be03e6009,Starling Esplanade,46.51674,6.566455,Route Cantonal 31,1025,2024-03-14T23:56,2024-03-15T00:00
912e3d73-056b-4d3a-b873-5d2e52c6a60f,SwissBikePark Oberried,46.88923,7.3670573,Oberriedgässli 6,3145,2024-03-14T23:56,2024-03-15T00:00
d57f7ead-6a7b-40ae-ad2f-52f51a1ece13,Wegmühlegässli,46.958153,7.492621,Bernstrasse 96,3072,2024-03-14T23:56,2024-03-15T00:00
b9484caa-3e52-434d-8933-0a2d167389f0,Zollgasse,46.95812,7.48801,Untere Zollgasse 4,3072,2024-03-14T23:56,2024-03-15T00:00
a2fa355f-567e-4449-956f-0c52b6c29407,Oberfeld,46.956112,7.498313,Kirschbaumweg 1,3072,2024-03-14T23:56,2024-03-15T00:00
69dbc994-e35c-4827-984a-32aef88d0fc3,Ostermundigen Bahnhof,46.956264,7.4828935,Poststrasse 1,3072,2024-03-14T23:56,2024-03-15T00:00
b2ca2c0b-7ead-4232-b4fa-e490e6fc28ec,Waldheimstrasse,46.95124,7.48704,Bachstrasse 5-1,3072,2024-03-14T23:56,2024-03-15T00:00
985ded18-e567-4b80-b3ee-1079ac8af66d,Quartiere di Meride,45.890057,8.950718,Ala Caraa,6866,2024-03-14T23:56,2024-03-15T00:00
e343fd76-c4af-45bd-a2e2-e7c7883646df,Beaumont FR,46.796173,7.143347,Route de Beaumont 10,1700,2024-03-14T23:56,2024-03-15T00:00
2b14a1f0-c159-415d-bf13-81d9f5b7c2d1,INFORAMA Zollikofen,46.98837,7.46332,Rütti 10,3052,2024-03-14T23:56,2024-03-15T00:00
59ff5719-751f-4ebb-8c00-1450068b4aca,Frankental,47.40548,8.481071,Frankentalerstrasse 10,8049,2024-03-14T23:56,2024-03-15T00:00
6b1c3a6e-c93d-4f42-a221-f6948057a83b,Fussgängerzone Bümpliz,46.941795,7.390649,Bümplizstrasse 112,3000,2024-03-14T23:56,2024-03-15T00:00
5ea7c545-5eb9-48b1-9505-911db258598a,Thörishaus Dorf SBB SwissBikePark,46.893414,7.3518543,Sensemattstrasse 21,3174,2024-03-14T23:56,2024-03-15T00:00
5b9680c5-b001-4637-ab28-48989bc9419f,Gasel BLS SwissBikePark,46.90081,7.401061,Schwarzenburgstrasse 574a,3144,2024-03-14T23:56,2024-03-15T00:00
20dbafe7-9e8e-466b-9fa8-6c9585cca89d,Binz,47.36309,8.51813,Haldenstrasse 7,8045,2024-03-14T23:56,2024-03-15T00:00
90a98e76-eec2-4e1a-8bf7-07c82db921dd,ZSC Lions,47.394688,8.478455,Vulkanstrasse 130,8048,2024-03-14T23:56,2024-03-15T00:00
15411471-40bc-4ce7-9c62-52b87639fc3a,Stadtplatz Kloten,47.451336,8.58205,Bachstrasse 8,8302,2024-03-14T23:56,2024-03-15T00:00
3a6f75e4-a985-41d9-bb7f-2262265a7965,Cornèr Arena - HC Lugano,46.025238,8.963681,Via Sonvico di Porza,6900,2024-03-14T23:56,2024-03-15T00:00
09aa312e-199d-42d6-aa34-cf071d6a06b7,Güterstrasse,46.94765,7.4169245,Güterstrasse 18,3008,2024-03-14T23:56,2024-03-15T00:00
a5f92d6e-47d8-4736-b4a6-74e288127dfa,Gymnasium Neufeld,46.958847,7.429204,Bremgartenstrasse 133,3012,2024-03-14T23:56,2024-03-15T00:00
e8a41675-2aa0-4d33-9c97-c3dd6d0e8629,Idaplatz,47.37419,8.514116,Idaplatz 4,8003,2024-03-14T23:56,2024-03-15T00:00
a9ab9380-bc7e-4eb1-9e52-dfa8045303b2,Saint-Sulpice-centre,46.510155,6.558052,Chemin du Crêt,1025,2024-03-14T23:56,2024-03-15T00:00
945ff91a-fbe7-4690-8d70-41795734d0a1,"Nyon, La Levratte",46.38734,6.227582,Av. Alfred Cortot,1260,2024-03-14T23:56,2024-03-15T00:00
eb226d95-8cdd-429d-b2a1-e0755fe08386,Tour Haldimand - TetraLaval TetraPak,46.50501,6.641321,Av. Général-Guisan 70,1009,2024-03-14T23:56,2024-03-15T00:00
d9bfdf2e-6dd9-4d4b-a53a-26560d5c9831,Parc de Valency,46.528778,6.614258,Av. d'Echallens,1004,2024-03-14T23:56,2024-03-15T00:00
00dad66c-6173-4d81-9cb4-8f97c512663c,Bourguillon,46.800365,7.1755557,Route de Bourguillon,1722,2024-03-14T23:56,2024-03-15T00:00
20a38151-78b4-41b3-807b-6caaf701c7ce,Römerhof,47.368473,8.559983,Ilgenstrasse 22,8032,2024-03-14T23:56,2024-03-15T00:00
fb384e5f-d207-4c1f-8705-223df79a2516,Wittigkofen,46.938446,7.4808035,Jupiterstrasse 1,3015,2024-03-14T23:56,2024-03-15T00:00
a80b3e27-7063-40d1-9272-befee94526b1,Viktoriaplatz,46.95518,7.451799,Beundenfeldstrasse 2,3013,2024-03-14T23:56,2024-03-15T00:00
0b92fe84-97da-4587-8786-0edf04009310,Weidmattweg,46.93659,7.395475,Weidmattweg 1,3018,2024-03-14T23:56,2024-03-15T00:00
b65fb698-4d89-44ba-9a5f-55139df23530,Stöckacker Süd,46.94304,7.4016275,Bethlehemstrasse 118,3018,2024-03-14T23:56,2024-03-15T00:00
e1d6873f-7947-4b0e-8b55-5d4a4258cb6a,"Sorengo, via Ponte Tresa",45.99879,8.939379,Via Ponte Tresa,6924,2024-03-14T23:56,2024-03-15T00:00
b5c349e5-1119-4aef-9893-28468d3e4c77,Mezzovico Piazza Vira,46.097042,8.922324,Via la Cuntrada,6805,2024-03-14T23:56,2024-03-15T00:00
d90d66fc-ba4e-4efa-ab3b-e463db961cf4,FFS Mezzovico-Vira,46.094685,8.928136,Via alla stazione,6805,2024-03-14T23:56,2024-03-15T00:00
8e6bff3f-bd49-41e4-b0b7-59acc140c8bb,Piaza du Buteghin,46.088135,8.915069,Via la Munda,6805,2024-03-14T23:56,2024-03-15T00:00
2da08669-07ea-48a9-bd10-8317f4dba0dd,Dorigny,46.52259,6.584961,UNIL Dorigny Bâtiment Extranef,1015,2024-03-14T23:56,2024-03-15T00:00
cf26deef-cfee-4291-bd2a-9211bee7f1ac,Place Alan Turing,46.51895,6.562162,Chemin Alan Turing,1015,2024-03-14T23:56,2024-03-15T00:00
2153cca1-8547-4980-bda4-8773e3bfe688,Centre Sportif UNIL EPFL,46.519806,6.579676,Route Cantonale,1015,2024-03-14T23:56,2024-03-15T00:00
91c8b8ee-d97f-4e95-a2bf-46c9c75d7c7d,Rivier,46.521976,6.564896,Route de la Sorge,1015,2024-03-14T23:56,2024-03-15T00:00
3743dc5e-0052-4ba8-a4f3-ff6405f02159,Piccard,46.52072,6.568276,Avenue Piccard,1015,2024-03-14T23:56,2024-03-15T00:00
d91e7653-d2d3-472a-9e1b-7297d1b32176,Sorge,46.52104,6.573253,UNIL Sorge,1015,2024-03-14T23:56,2024-03-15T00:00
530b8903-3254-4eee-abb9-4703fa949491,Unil Centre,46.521667,6.581345,Unicentre,1015,2024-03-14T23:56,2024-03-15T00:00
20863758-2092-4ef2-902b-26f12c1fb09b,Beausobre,46.5157,6.4992347,Avenue de Vertou 2,1110,2024-03-14T23:56,2024-03-15T00:00
8114d933-7f84-4c35-8850-39a98e9a9456,"Vich, Poste",46.428783,6.24976,Place Marcel Ponce,1267,2024-03-14T23:56,2024-03-15T00:00
1d509372-6e9e-4e9a-afa6-ac1a7fae9c88,Länggasse,46.956028,7.425798,Länggasstrasse 124,3012,2024-03-14T23:56,2024-03-15T00:00
9f8fc73c-7de9-40ee-a3a3-204c9c8a9dcf,Champriond,46.79435,7.14049,Route de la Veveyse 26,1700,2024-03-14T23:56,2024-03-15T00:00
734f833f-4024-4af3-9461-de03208f19a3,Softcom,46.80959,7.14687,Route du Jura 41,1700,2024-03-14T23:56,2024-03-15T00:00
b2ec2b0b-38fc-4a54-8dec-5f98b0000da8,Rue du Simplon,46.79934,7.151984,Rue du Simplon 3,1700,2024-03-14T23:56,2024-03-15T00:00
8ca8589d-9735-4419-8d3d-955bad9e3991,Bourgknecht,46.811752,7.150142,Avenue Jean-Bourgknecht,1700,2024-03-14T23:56,2024-03-15T00:00
68033c53-ddb8-4e47-a2f1-4e08147a401d,Fribourg Gare Nord,46.803944,7.151989,Place de la Gare 15,1700,2024-03-14T23:56,2024-03-15T00:00
b7190f32-bff5-4a5c-8109-00013a7a422a,Place Georges Python,46.80457,7.155553,Square des Places 1,1700,2024-03-14T23:56,2024-03-15T00:00
3707f3cd-3f45-4c0b-ae93-99de41f148af,La Motta,46.80295,7.15966,Petites-Rames 18,1700,2024-03-14T23:56,2024-03-15T00:00
c0f5b421-5913-48fe-b383-3ce9846e9955,Quartier d'Alt,46.808006,7.155941,Derrière-les-Remparts 12,1700,2024-03-14T23:56,2024-03-15T00:00
9e0e5ce0-a487-4c03-b263-c7c03bdaa2f9,Denens village,46.518387,6.456902,Rue de la Cité 2,1135,2024-03-14T23:56,2024-03-15T00:00
83a21582-7b74-4f7b-9026-6d9fd9096f1c,Gare de Pully sud,46.51061,6.6593676,Place de la Gare 1,1009,2024-03-14T23:56,2024-03-15T00:00
217a8125-174d-44c5-bac1-73217db41a81,Gare de Pully nord,46.514862,6.658812,Chem. du Montillier 9,1009,2024-03-14T23:56,2024-03-15T00:00
d99b6318-83a6-4c8a-be61-dcd20354d3f7,"Grens, Allée des Moulins",46.399963,6.203576,Chemin du Nant,1274,2024-03-14T23:56,2024-03-15T00:00
8e1a2066-3350-4cc8-8335-bb66753638c4,Piscine de Fleur-de-Lys,46.544056,6.60345,Sentier de la Fleur-de-Lys 2,1008,2024-03-14T23:56,2024-03-15T00:00
6d90ffdb-40ef-4cbd-9efe-caf0cc08d5db,Muzzano paese,45.998474,8.923755,Via Alla Selva,6933,2024-03-14T23:56,2024-03-15T00:00
837098f0-f03f-4bb7-a7a5-79e760c47fa0,Hauptsitz PubliBike,46.938747,7.475215,Weltpoststrasse 5,3015,2024-03-14T23:56,2024-03-15T00:00
7b450f63-3a0a-4b24-b9a6-1a49932799c4,Cureglia,46.03884,8.946213,Incrocio Via San Giuseppe / Via Cantonale,6944,2024-03-14T23:56,2024-03-15T00:00
c55311bd-1a33-472b-b023-46ebc000d1b5,Cassarate Via del Tiglio,46.008144,8.969007,Via del Tiglio,6900,2024-03-14T23:56,2024-03-15T00:00
a4ccaf0d-eda9-4a32-9e0e-d2a4e8ecc427,Chiasso Piscine,45.838047,9.026857,Via Rinaldo Simen,6830,2024-03-14T23:56,2024-03-15T00:00
a631d7f5-11ea-4a76-9a90-c89e4b3296f2,Skyguide,47.407433,8.639147,Flugsicherungsstrasse 2,8602,2024-03-14T23:56,2024-03-15T00:00
78c6ae3e-0109-4bf6-bd6c-17faf757c6b8,Welle 7 Velostation (06:00-22:00)- INSIDE the building!,46.94778,7.4365087,Merkurgässli,3008,2024-03-14T23:56,2024-03-15T00:00
9671ae56-70e7-4787-b751-f7bfb7701396,Pädagogische Hochschule Graubünden,46.86694,9.53723,Scalärastrasse 17,7000,2024-03-14T23:56,2024-03-15T00:00
070187ba-59c0-4b82-90b8-6b1492721dcb,Fachhochschule Graubünden Comercialstrasse,46.847347,9.509044,Comercialstrasse 28,7000,2024-03-14T23:56,2024-03-15T00:00
c0708ba7-652b-4399-919a-a2dc671e5a9f,Fachhochschule Graubünden Pulvermühlestrasse,46.85309,9.51228,Pulvermühlestrasse 57,7000,2024-03-14T23:56,2024-03-15T00:00
6ccb755e-e35e-4d59-9dee-7e9427e9b43d,Stadthaus Chur,46.851704,9.534199,Masanserstrasse 2,7000,2024-03-14T23:56,2024-03-15T00:00
90e12b9b-4f48-4643-b5e8-04f355aa5c10,Bahnhof/Gürtelstrasse,46.85417,9.52839,Gürtelstrasse 39,7000,2024-03-14T23:56,2024-03-15T00:00
d27ba5f6-ed02-45b6-bb27-22f1ad15ba27,Klinik Waldhaus,46.86924,9.54073,Loestrasse 220,7000,2024-03-14T23:56,2024-03-15T00:00
398f16bb-adb5-402b-b958-c9ff50080f86,Kantonsspital,46.86357,9.53866,Loestrasse 170,7000,2024-03-14T23:56,2024-03-15T00:00
e8464a0b-43c5-4fa4-9202-61fa9aa7a81c,Kantonsschule Plessur,46.84647,9.53609,Münzweg 3,7000,2024-03-14T23:56,2024-03-15T00:00
f023803a-b151-4f3d-bcfa-3036665f3340,Bahnhofplatz Chur,46.85311,9.52903,Bahnhofplatz 2,7000,2024-03-14T23:56,2024-03-15T00:00
654bf766-f0f8-4b82-a8f2-7705ccc6bfa0,Papiermühle Bahnhof,46.974224,7.47682,Papiermühlestrasse 172,3063,2024-03-14T23:56,2024-03-15T00:00
fe6f64e1-0278-4421-8c87-9f6065221cb0,Los Lorentes Residences,46.94867,7.4081473,Murtenstrasse 147,3008,2024-03-14T23:56,2024-03-15T00:00
82de79b0-165d-454b-b285-1e37bfca7e31,Sinergia,46.84898,9.5145,Ringstrasse 10,7000,2024-03-14T23:56,2024-03-15T00:00
531a0f73-8e3d-4b2b-9cb2-96beeb684c79,Bodelenweg,46.927746,7.3700695,Bodelenweg 100,3172,2024-03-14T23:56,2024-03-15T00:00
ec858343-bbd5-4a3d-ae6e-550923d9b6f8,Schwimmhalle Neufeld,46.9608,7.4339643,Neubrückstrasse 133,3012,2024-03-14T23:56,2024-03-15T00:00
d6bdd65c-2861-40d5-a18b-b4af34701a7e,Ittigen Bahnhof,46.973324,7.484832,Worblentalstrasse 86,3063,2024-03-14T23:56,2024-03-15T00:00
870febaa-704e-4583-bb8c-8f1d7b93f485,Briefzentrum Zürich-Mülligen,47.395256,8.469131,Zürcherstrasse 161,8952,2024-03-14T23:56,2024-03-15T00:00
191bfa48-4179-43c5-a9da-6b2102a81c05,Brûlée,46.527855,6.5605354,"Rte de la Brûlée, 1024 Ecublens",1024,2024-03-14T23:56,2024-03-15T00:00
015e39ac-be6e-413d-8b43-8c4b97206720,"Mont-sur-Rolle, Bellefontaine",46.46414,6.348945,Chem. du Levant 1,1185,2024-03-14T23:56,2024-03-15T00:00
79ad95b2-3729-40b5-a91b-6bd97e079586,RBS Moosseedorf,47.015385,7.48331,Sandstrasse 9,3302,2024-03-14T23:56,2024-03-15T00:00
6d36086f-4396-410f-96f4-acfb01f42119,Lochacker Moosseedorf,47.012882,7.469947,Lochackerweg 5,3302,2024-03-14T23:56,2024-03-15T00:00
